$GPGGA,020111.00,3538.1941,N,13955.1094,E,0,00,6.9,0.0,M,0.0,M$GPGGA,020128.00,3538.1941,N,13955.1094,E,0,00,6.9,0.0,M,0.0,M,,*5C
$GNGLL,3538.1941,N,13955.1094,E,020128.00,V,N*61
$GNGSA,A,1,,,,,,,,,,,,,10.5,6.9,7.8*1A
$GPGSV,1,1,02,21,,,00,26,,,00,,,,,,,,*7C
$GNGNS,020128.00,3538.1941,N,13955.1094,E,NN,00,6.9,0.0,M,0.0,M,,*69
$GNRMC,020128.00,V,3538.1941,N,13955.1094,E,,,060180,,,N*59
$GNVTG,,T,,M,,N,,K,N*32
$GNZDA,020128.00,06,01,1980,,*76
$L1MAG,0.00,0.00,377,377*36
$GPGGA,020129.00,3538.1941,N,13955.1094,E,0,00,6.9,0.0,M,0.0,M,,*5D
$GNGLL,3538.1941,N,13955.1094,E,020129.00,V,N*60
$GNGSA,A,1,,,,,,,,,,,,,10.5,6.9,7.8*1A
$GPGSV,1,1,02,21,,,00,26,,,00,,,,,,,,*7C
$GNGNS,020129.00,3538.1941,N,13955.1094,E,NN,00,6.9,0.0,M,0.0,M,,*68
$GNRMC,020129.00,V,3538.1941,N,13955.1094,E,,,060180,,,N*58
$GNVTG,,T,,M,,N,,K,N*32
$GNZDA,020129.00,06,01,1980,,*77
$L1MAG,0.00,0.00,354,354*36
$GPGGA,020130.00,3538.1941,N,13955.1094,E,0,00,6.9,0.0,M,0.0,M,,*55
$GNGLL,3538.1941,N,13955.1094,E,020130.00,V,N*68
$GNGSA,A,1,,,,,,,,,,,,,10.5,6.9,7.8*1A
$GPGSV,1,1,02,21,,,00,26,,,00,,,,,,,,*7C
$GNGNS,020130.00,3538.1941,N,13955.1094,E,NN,00,6.9,0.0,M,0.0,M,,*60
$GNRMC,020130.00,V,3538.1941,N,13955.1094,E,,,060180,,,N*50
$GNVTG,,T,,M,,N,,K,N*32
$GNZDA,020130.00,06,01,1980,,*7F
$L1MAG,0.00,0.00,423,423*36
$GPGGA,020131.00,3538.1941,N,13955.1094,E,0,00,6.9,0.0,M,0.0,M,,*54
$GNGLL,3538.1941,N,13955.1094,E,020131.00,V,N*69
$GNGSA,A,1,,,,,,,,,,,,,10.5,6.9,7.8*1A
$GPGSV,1,1,01,26,,,00,,,,,,,,,,,,*7C
$GNGNS,020131.00,3538.1941,N,13955.1094,E,NN,00,6.9,0.0,M,0.0,M,,*61
$GNRMC,020131.00,V,3538.1941,N,13955.1094,E,,,060180,,,N*51
$GNVTG,,T,,M,,N,,K,N*32
$GNZDA,020131.00,06,01,1980,,*7E
$L1MAG,0.00,0.00,401,401*36
$GPGGA,020132.00,3538.1941,N,13955.1094,E,0,00,6.9,0.0,M,0.0,M,,*57
$GNGLL,3538.1941,N,13955.1094,E,020132.00,V,N*6A
$GNGSA,A,1,,,,,,,,,,,,,10.5,6.9,7.8*1A
$GPGSV,1,1,01,26,,,00,,,,,,,,,,,,*7C
$GQGSV,1,1,01,56,,,21,,,,,,,,,,,,*79
$GNGNS,020132.00,3538.1941,N,13955.1094,E,NN,00,6.9,0.0,M,0.0,M,,*62
$GNRMC,020132.00,V,3538.1941,N,13955.1094,E,,,060180,,,N*52
$GNVTG,,T,,M,,N,,K,N*32
$GNZDA,020132.00,06,01,1980,,*7D
$L1MAG,0.00,0.00,376,376*36
$GPGGA,020133.00,3538.1941,N,13955.1094,E,0,00,6.9,0.0,M,0.0,M,,*56
$GNGLL,3538.1941,N,13955.1094,E,020133.00,V,N*6B
$GNGSA,A,1,,,,,,,,,,,,,10.5,6.9,7.8*1A
$GPGSV,1,1,01,26,,,00,,,,,,,,,,,,*7C
$GQGSV,1,1,01,56,,,00,,,,,,,,,,,,*7A
$GNGNS,020133.00,3538.1941,N,13955.1094,E,NN,00,6.9,0.0,M,0.0,M,,*63
$GNRMC,020133.00,V,3538.1941,N,13955.1094,E,,,060180,,,N*53
$GNVTG,,T,,M,,N,,K,N*32
$GNZDA,020133.00,06,01,1980,,*7C
$L1MAG,0.00,0.00,397,397*36
$GPGGA,020134.00,3538.1941,N,13955.1094,E,0,00,6.9,0.0,M,0.0,M,,*51
$GNGLL,3538.1941,N,13955.1094,E,020134.00,V,N*6C
$GNGSA,A,1,,,,,,,,,,,,,10.5,6.9,7.8*1A
$GQGSV,1,1,01,56,,,00,,,,,,,,,,,,*7A
$GNGNS,020134.00,3538.1941,N,13955.1094,E,NN,00,6.9,0.0,M,0.0,M,,*64
$GNRMC,020134.00,V,3538.1941,N,13955.1094,E,,,060180,,,N*54
$GNVTG,,T,,M,,N,,K,N*32
$GNZDA,020134.00,06,01,1980,,*7B
$L1MAG,0.00,0.00,402,402*36
$GPGGA,020135.00,3538.1941,N,13955.1094,E,0,00,6.9,0.0,M,0.0,M,,*50
$GNGLL,3538.1941,N,13955.1094,E,020135.00,V,N*6D
$GNGSA,A,1,,,,,,,,,,,,,10.5,6.9,7.8*1A
$GQGSV,1,1,01,56,,,00,,,,,,,,,,,,*7A
$GNGNS,020135.00,3538.1941,N,13955.1094,E,NN,00,6.9,0.0,M,0.0,M,,*65
$GNRMC,020135.00,V,3538.1941,N,13955.1094,E,,,060180,,,N*55
$GNVTG,,T,,M,,N,,K,N*32
$GNZDA,020135.00,06,01,1980,,*7A
$L1MAG,0.00,0.00,393,393*36
$GPGGA,020136.00,3538.1941,N,13955.1094,E,0,00,6.9,0.0,M,0.0,M,,*53
$GNGLL,3538.1941,N,13955.1094,E,020136.00,V,N*6E
$GNGSA,A,1,,,,,,,,,,,,,10.5,6.9,7.8*1A
$GQGSV,1,1,01,56,,,00,,,,,,,,,,,,*7A
$GNGNS,020136.00,3538.1941,N,13955.1094,E,NN,00,6.9,0.0,M,0.0,M,,*66
$GNRMC,020136.00,V,3538.1941,N,13955.1094,E,,,060180,,,N*56
$GNVTG,,T,,M,,N,,K,N*32
$GNZDA,020136.00,06,01,1980,,*79
$L1MAG,0.00,0.00,394,394*36
$GPGGA,020137.00,3538.1941,N,13955.1094,E,0,00,6.9,0.0,M,0.0,M,,*52
$GNGLL,3538.1941,N,13955.1094,E,020137.00,V,N*6F
$GNGSA,A,1,,,,,,,,,,,,,10.5,6.9,7.8*1A
$GQGSV,1,1,01,56,,,16,,,,,,,,,,,,*7D
$GNGNS,020137.00,3538.1941,N,13955.1094,E,NN,00,6.9,0.0,M,0.0,M,,*67
$GNRMC,020137.00,V,3538.1941,N,13955.1094,E,,,060180,,,N*57
$GNVTG,,T,,M,,N,,K,N*32
$GNZDA,020137.00,06,01,1980,,*78
$L1MAG,0.00,0.00,416,416*36
$GPGGA,020138.00,3538.1941,N,13955.1094,E,0,00,6.9,0.0,M,0.0,M,,*5D
$GNGLL,3538.1941,N,13955.1094,E,020138.00,V,N*60
$GNGSA,A,1,,,,,,,,,,,,,10.5,6.9,7.8*1A
$GNGNS,020138.00,3538.1941,N,13955.1094,E,NN,00,6.9,0.0,M,0.0,M,,*68
$GNRMC,020138.00,V,3538.1941,N,13955.1094,E,,,060180,,,N*58
$GNVTG,,T,,M,,N,,K,N*32
$GNZDA,020138.00,06,01,1980,,*77
$L1MAG,0.00,0.00,401,401*36
$GPGGA,020139.00,3538.1941,N,13955.1094,E,0,00,6.9,0.0,M,0.0,M,,*5C
$GNGLL,3538.1941,N,13955.1094,E,020139.00,V,N*61
$GNGSA,A,1,,,,,,,,,,,,,10.5,6.9,7.8*1A
$GNGNS,020139.00,3538.1941,N,13955.1094,E,NN,00,6.9,0.0,M,0.0,M,,*69
$GNRMC,020139.00,V,3538.1941,N,13955.1094,E,,,060180,,,N*59
$GNVTG,,T,,M,,N,,K,N*32
$GNZDA,020139.00,06,01,1980,,*76
$L1MAG,0.00,0.00,401,401*36
$GPGGA,020140.00,3538.1941,N,13955.1094,E,0,00,6.9,0.0,M,0.0,M,,*52
$GNGLL,3538.1941,N,13955.1094,E,020140.00,V,N*6F
$GNGSA,A,1,,,,,,,,,,,,,10.5,6.9,7.8*1A
$GNGNS,020140.00,3538.1941,N,13955.1094,E,NN,00,6.9,0.0,M,0.0,M,,*67
$GNRMC,020140.00,V,3538.1941,N,13955.1094,E,,,060180,,,N*57
$GNVTG,,T,,M,,N,,K,N*32
$GNZDA,020140.00,06,01,1980,,*78
$L1MAG,0.00,0.00,390,390*36
$GPGGA,020141.00,3538.1941,N,13955.1094,E,0,00,6.9,0.0,M,0.0,M,,*53
$GNGLL,3538.1941,N,13955.1094,E,020141.00,V,N*6E
$GNGSA,A,1,,,,,,,,,,,,,10.5,6.9,7.8*1A
$GNGNS,020141.00,3538.1941,N,13955.1094,E,NN,00,6.9,0.0,M,0.0,M,,*66
$GNRMC,020141.00,V,3538.1941,N,13955.1094,E,,,060180,,,N*56
$GNVTG,,T,,M,,N,,K,N*32
$GNZDA,020141.00,06,01,1980,,*79
$L1MAG,0.00,0.00,403,403*36
$GPGGA,020142.00,3538.1941,N,13955.1094,E,0,00,6.9,0.0,M,0.0,M,,*50
$GNGLL,3538.1941,N,13955.1094,E,020142.00,V,N*6D
$GNGSA,A,1,,,,,,,,,,,,,10.5,6.9,7.8*1A
$GNGNS,020142.00,3538.1941,N,13955.1094,E,NN,00,6.9,0.0,M,0.0,M,,*65
$GNRMC,020142.00,V,3538.1941,N,13955.1094,E,,,060180,,,N*55
$GNVTG,,T,,M,,N,,K,N*32
$GNZDA,020142.00,06,01,1980,,*7A
$L1MAG,0.00,0.00,384,384*36
$GPGGA,020143.00,3538.1941,N,13955.1094,E,0,00,6.9,0.0,M,0.0,M,,*51
$GNGLL,3538.1941,N,13955.1094,E,020143.00,V,N*6C
$GNGSA,A,1,,,,,,,,,,,,,10.5,6.9,7.8*1A
$GNGNS,020143.00,3538.1941,N,13955.1094,E,NN,00,6.9,0.0,M,0.0,M,,*64
$GNRMC,020143.00,V,3538.1941,N,13955.1094,E,,,060180,,,N*54
$GNVTG,,T,,M,,N,,K,N*32
$GNZDA,020143.00,06,01,1980,,*7B
$L1MAG,0.00,0.00,378,378*36
$GPGGA,020144.00,3538.1941,N,13955.1094,E,0,00,6.9,0.0,M,0.0,M,,*56
$GNGLL,3538.1941,N,13955.1094,E,020144.00,V,N*6B
$GNGSA,A,1,,,,,,,,,,,,,10.5,6.9,7.8*1A
$GNGNS,020144.00,3538.1941,N,13955.1094,E,NN,00,6.9,0.0,M,0.0,M,,*63
$GNRMC,020144.00,V,3538.1941,N,13955.1094,E,,,060180,,,N*53
$GNVTG,,T,,M,,N,,K,N*32
$GNZDA,020144.00,06,01,1980,,*7C
$L1MAG,0.00,0.00,392,392*36
$GPGGA,020145.00,3538.1941,N,13955.1094,E,0,00,6.9,0.0,M,0.0,M,,*57
$GNGLL,3538.1941,N,13955.1094,E,020145.00,V,N*6A
$GNGSA,A,1,,,,,,,,,,,,,10.5,6.9,7.8*1A
$GNGNS,020145.00,3538.1941,N,13955.1094,E,NN,00,6.9,0.0,M,0.0,M,,*62
$GNRMC,020145.00,V,3538.1941,N,13955.1094,E,,,060180,,,N*52
$GNVTG,,T,,M,,N,,K,N*32
$GNZDA,020145.00,06,01,1980,,*7D
$L1MAG,0.00,0.00,390,390*36
$GPGGA,020146.00,3538.1941,N,13955.1094,E,0,00,6.9,0.0,M,0.0,M,,*54
$GNGLL,3538.1941,N,13955.1094,E,020146.00,V,N*69
$GNGSA,A,1,,,,,,,,,,,,,10.5,6.9,7.8*1A
$GQGSV,1,1,01,56,,,00,,,,,,,,,,,,*7A
$GNGNS,020146.00,3538.1941,N,13955.1094,E,NN,00,6.9,0.0,M,0.0,M,,*61
$GNRMC,020146.00,V,3538.1941,N,13955.1094,E,,,060180,,,N*51
$GNVTG,,T,,M,,N,,K,N*32
$GNZDA,020146.00,06,01,1980,,*7E
$L1MAG,0.00,0.00,409,409*36
$GPGGA,020147.00,3538.1941,N,13955.1094,E,0,00,6.9,0.0,M,0.0,M,,*55
$GNGLL,3538.1941,N,13955.1094,E,020147.00,V,N*68
$GNGSA,A,1,,,,,,,,,,,,,10.5,6.9,7.8*1A
$GQGSV,1,1,01,56,,,00,,,,,,,,,,,,*7A
$GNGNS,020147.00,3538.1941,N,13955.1094,E,NN,00,6.9,0.0,M,0.0,M,,*60
$GNRMC,020147.00,V,3538.1941,N,13955.1094,E,,,060180,,,N*50
$GNVTG,,T,,M,,N,,K,N*32
$GNZDA,020147.00,06,01,1980,,*7F
$L1MAG,0.00,0.00,407,407*36
$GPGGA,020148.00,3538.1941,N,13955.1094,E,0,00,6.9,0.0,M,0.0,M,,*5A
$GNGLL,3538.1941,N,13955.1094,E,020148.00,V,N*67
$GNGSA,A,1,,,,,,,,,,,,,10.5,6.9,7.8*1A
$GQGSV,1,1,01,56,,,00,,,,,,,,,,,,*7A
$GNGNS,020148.00,3538.1941,N,13955.1094,E,NN,00,6.9,0.0,M,0.0,M,,*6F
$GNRMC,020148.00,V,3538.1941,N,13955.1094,E,,,060180,,,N*5F
$GNVTG,,T,,M,,N,,K,N*32
$GNZDA,020148.00,06,01,1980,,*70
$L1MAG,0.00,0.00,401,401*36
$GPGGA,020149.00,3538.1941,N,13955.1094,E,0,00,6.9,0.0,M,0.0,M,,*5B
$GNGLL,3538.1941,N,13955.1094,E,020149.00,V,N*66
$GNGSA,A,1,,,,,,,,,,,,,10.5,6.9,7.8*1A
$GQGSV,1,1,01,56,,,00,,,,,,,,,,,,*7A
$GNGNS,020149.00,3538.1941,N,13955.1094,E,NN,00,6.9,0.0,M,0.0,M,,*6E
$GNRMC,020149.00,V,3538.1941,N,13955.1094,E,,,060180,,,N*5E
$GNVTG,,T,,M,,N,,K,N*32
$GNZDA,020149.00,06,01,1980,,*71
$L1MAG,0.00,0.00,393,393*36
$GPGGA,020150.00,3538.1941,N,13955.1094,E,0,00,6.9,0.0,M,0.0,M,,*53
$GNGLL,3538.1941,N,13955.1094,E,020150.00,V,N*6E
$GNGSA,A,1,,,,,,,,,,,,,10.5,6.9,7.8*1A
$GQGSV,1,1,01,56,,,00,,,,,,,,,,,,*7A
$GNGNS,020150.00,3538.1941,N,13955.1094,E,NN,00,6.9,0.0,M,0.0,M,,*66
$GNRMC,020150.00,V,3538.1941,N,13955.1094,E,,,060180,,,N*56
$GNVTG,,T,,M,,N,,K,N*32
$GNZDA,020150.00,06,01,1980,,*79
$L1MAG,0.00,0.00,403,403*36
$GPGGA,020151.00,3538.1941,N,13955.1094,E,0,00,6.9,0.0,M,0.0,M,,*52
$GNGLL,3538.1941,N,13955.1094,E,020151.00,V,N*6F
$GNGSA,A,1,,,,,,,,,,,,,10.5,6.9,7.8*1A
$GQGSV,1,1,01,56,,,00,,,,,,,,,,,,*7A
$GNGNS,020151.00,3538.1941,N,13955.1094,E,NN,00,6.9,0.0,M,0.0,M,,*67
$GNRMC,020151.00,V,3538.1941,N,13955.1094,E,,,060180,,,N*57
$GNVTG,,T,,M,,N,,K,N*32
$GNZDA,020151.00,06,01,1980,,*78
$L1MAG,0.00,0.00,396,396*36
$GPGGA,020152.00,3538.1941,N,13955.1094,E,0,00,6.9,0.0,M,0.0,M,,*51
$GNGLL,3538.1941,N,13955.1094,E,020152.00,V,N*6C
$GNGSA,A,1,,,,,,,,,,,,,10.5,6.9,7.8*1A
$GQGSV,1,1,01,56,,,00,,,,,,,,,,,,*7A
$GNGNS,020152.00,3538.1941,N,13955.1094,E,NN,00,6.9,0.0,M,0.0,M,,*64
$GNRMC,020152.00,V,3538.1941,N,13955.1094,E,,,060180,,,N*54
$GNVTG,,T,,M,,N,,K,N*32
$GNZDA,020152.00,06,01,1980,,*7B
$L1MAG,0.00,0.00,391,391*36
$GPGGA,020153.00,3538.1941,N,13955.1094,E,0,00,6.9,0.0,M,0.0,M,,*50
$GNGLL,3538.1941,N,13955.1094,E,020153.00,V,N*6D
$GNGSA,A,1,,,,,,,,,,,,,10.5,6.9,7.8*1A
$GNGNS,020153.00,3538.1941,N,13955.1094,E,NN,00,6.9,0.0,M,0.0,M,,*65
$GNRMC,020153.00,V,3538.1941,N,13955.1094,E,,,060180,,,N*55
$GNVTG,,T,,M,,N,,K,N*32
$GNZDA,020153.00,06,01,1980,,*7A
$L1MAG,0.00,0.00,390,390*36
$GPGGA,020154.00,3538.1941,N,13955.1094,E,0,00,6.9,0.0,M,0.0,M,,*57
$GNGLL,3538.1941,N,13955.1094,E,020154.00,V,N*6A
$GNGSA,A,1,,,,,,,,,,,,,10.5,6.9,7.8*1A
$GNGNS,020154.00,3538.1941,N,13955.1094,E,NN,00,6.9,0.0,M,0.0,M,,*62
$GNRMC,020154.00,V,3538.1941,N,13955.1094,E,,,060180,,,N*52
$GNVTG,,T,,M,,N,,K,N*32
$GNZDA,020154.00,06,01,1980,,*7D
$L1MAG,0.00,0.00,381,381*36
$GPGGA,020155.00,3538.1941,N,13955.1094,E,0,00,6.9,0.0,M,0.0,M,,*56
$GNGLL,3538.1941,N,13955.1094,E,020155.00,V,N*6B
$GNGSA,A,1,,,,,,,,,,,,,10.5,6.9,7.8*1A
$GNGNS,020155.00,3538.1941,N,13955.1094,E,NN,00,6.9,0.0,M,0.0,M,,*63
$GNRMC,020155.00,V,3538.1941,N,13955.1094,E,,,060180,,,N*53
$GNVTG,,T,,M,,N,,K,N*32
$GNZDA,020155.00,06,01,1980,,*7C
$L1MAG,0.00,0.00,411,411*36
$GPGGA,020156.00,3538.1941,N,13955.1094,E,0,00,6.9,0.0,M,0.0,M,,*55
$GNGLL,3538.1941,N,13955.1094,E,020156.00,V,N*68
$GNGSA,A,1,,,,,,,,,,,,,10.5,6.9,7.8*1A
$GNGNS,020156.00,3538.1941,N,13955.1094,E,NN,00,6.9,0.0,M,0.0,M,,*60
$GNRMC,020156.00,V,3538.1941,N,13955.1094,E,,,060180,,,N*50
$GNVTG,,T,,M,,N,,K,N*32
$GNZDA,020156.00,06,01,1980,,*7F
$L1MAG,0.00,0.00,414,414*36
$GPGGA,020157.00,3538.1941,N,13955.1094,E,0,00,6.9,0.0,M,0.0,M,,*54
$GNGLL,3538.1941,N,13955.1094,E,020157.00,V,N*69
$GNGSA,A,1,,,,,,,,,,,,,10.5,6.9,7.8*1A
$GPGSV,1,1,01,11,,,00,,,,,,,,,,,,*78
$GNGNS,020157.00,3538.1941,N,13955.1094,E,NN,00,6.9,0.0,M,0.0,M,,*61
$GNRMC,020157.00,V,3538.1941,N,13955.1094,E,,,060180,,,N*51
$GNVTG,,T,,M,,N,,K,N*32
$GNZDA,020157.00,06,01,1980,,*7E
$L1MAG,0.00,0.00,390,390*36
$GPGGA,020158.00,3538.1941,N,13955.1094,E,0,00,6.9,0.0,M,0.0,M,,*5B
$GNGLL,3538.1941,N,13955.1094,E,020158.00,V,N*66
$GNGSA,A,1,,,,,,,,,,,,,10.5,6.9,7.8*1A
$GPGSV,1,1,01,11,,,00,,,,,,,,,,,,*78
$GNGNS,020158.00,3538.1941,N,13955.1094,E,NN,00,6.9,0.0,M,0.0,M,,*6E
$GNRMC,020158.00,V,3538.1941,N,13955.1094,E,,,060180,,,N*5E
$GNVTG,,T,,M,,N,,K,N*32
$GNZDA,020158.00,06,01,1980,,*71
$L1MAG,0.00,0.00,396,396*36
$GPGGA,020159.00,3538.1941,N,13955.1094,E,0,00,6.9,0.0,M,0.0,M,,*5A
$GNGLL,3538.1941,N,13955.1094,E,020159.00,V,N*67
$GNGSA,A,1,,,,,,,,,,,,,10.5,6.9,7.8*1A
$GPGSV,1,1,01,11,,,07,,,,,,,,,,,,*7F
$GNGNS,020159.00,3538.1941,N,13955.1094,E,NN,00,6.9,0.0,M,0.0,M,,*6F
$GNRMC,020159.00,V,3538.1941,N,13955.1094,E,,,060180,,,N*5F
$GNVTG,,T,,M,,N,,K,N*32
$GNZDA,020159.00,06,01,1980,,*70
$L1MAG,0.00,0.00,407,407*36
$GPGGA,020200.00,3538.1941,N,13955.1094,E,0,00,6.9,0.0,M,0.0,M,,*55
$GNGLL,3538.1941,N,13955.1094,E,020200.00,V,N*68
$GNGSA,A,1,,,,,,,,,,,,,10.5,6.9,7.8*1A
$GNGNS,020200.00,3538.1941,N,13955.1094,E,NN,00,6.9,0.0,M,0.0,M,,*60
$GNRMC,020200.00,V,3538.1941,N,13955.1094,E,,,060180,,,N*50
$GNVTG,,T,,M,,N,,K,N*32
$GNZDA,020200.00,06,01,1980,,*7F
$L1MAG,0.00,0.00,429,429*36
$GPGGA,020201.00,3538.1941,N,13955.1094,E,0,00,6.9,0.0,M,0.0,M,,*54
$GNGLL,3538.1941,N,13955.1094,E,020201.00,V,N*69
$GNGSA,A,1,,,,,,,,,,,,,10.5,6.9,7.8*1A
$GQGSV,1,1,01,62,,,13,,,,,,,,,,,,*7F
$GNGNS,020201.00,3538.1941,N,13955.1094,E,NN,00,6.9,0.0,M,0.0,M,,*61
$GNRMC,020201.00,V,3538.1941,N,13955.1094,E,,,060180,,,N*51
$GNVTG,,T,,M,,N,,K,N*32
$GNZDA,020201.00,06,01,1980,,*7E
$L1MAG,0.00,0.00,415,415*36
$GPGGA,020202.00,3538.1941,N,13955.1094,E,0,00,6.9,0.0,M,0.0,M,,*57
$GNGLL,3538.1941,N,13955.1094,E,020202.00,V,N*6A
$GNGSA,A,1,,,,,,,,,,,,,10.5,6.9,7.8*1A
$GQGSV,1,1,01,62,,,00,,,,,,,,,,,,*7D
$GNGNS,020202.00,3538.1941,N,13955.1094,E,NN,00,6.9,0.0,M,0.0,M,,*62
$GNRMC,020202.00,V,3538.1941,N,13955.1094,E,,,060180,,,N*52
$GNVTG,,T,,M,,N,,K,N*32
$GNZDA,020202.00,06,01,1980,,*7D
$L1MAG,0.00,0.00,389,389*36
$GPGGA,020203.00,3538.1941,N,13955.1094,E,0,00,6.9,0.0,M,0.0,M,,*56
$GNGLL,3538.1941,N,13955.1094,E,020203.00,V,N*6B
$GNGSA,A,1,,,,,,,,,,,,,10.5,6.9,7.8*1A
$GQGSV,1,1,01,62,,,00,,,,,,,,,,,,*7D
$GNGNS,020203.00,3538.1941,N,13955.1094,E,NN,00,6.9,0.0,M,0.0,M,,*63
$GNRMC,020203.00,V,3538.1941,N,13955.1094,E,,,060180,,,N*53
$GNVTG,,T,,M,,N,,K,N*32
$GNZDA,020203.00,06,01,1980,,*7C
$L1MAG,0.00,0.00,403,403*36
$GPGGA,020204.00,3538.1941,N,13955.1094,E,0,00,6.9,0.0,M,0.0,M,,*51
$GNGLL,3538.1941,N,13955.1094,E,020204.00,V,N*6C
$GNGSA,A,1,,,,,,,,,,,,,10.5,6.9,7.8*1A
$GQGSV,1,1,01,62,,,00,,,,,,,,,,,,*7D
$GNGNS,020204.00,3538.1941,N,13955.1094,E,NN,00,6.9,0.0,M,0.0,M,,*64
$GNRMC,020204.00,V,3538.1941,N,13955.1094,E,,,060180,,,N*54
$GNVTG,,T,,M,,N,,K,N*32
$GNZDA,020204.00,06,01,1980,,*7B
$L1MAG,0.00,0.00,386,386*36
$GPGGA,020205.00,3538.1941,N,13955.1094,E,0,00,6.9,0.0,M,0.0,M,,*50
$GNGLL,3538.1941,N,13955.1094,E,020205.00,V,N*6D
$GNGSA,A,1,,,,,,,,,,,,,10.5,6.9,7.8*1A
$GQGSV,1,1,01,62,,,00,,,,,,,,,,,,*7D
$GNGNS,020205.00,3538.1941,N,13955.1094,E,NN,00,6.9,0.0,M,0.0,M,,*65
$GNRMC,020205.00,V,3538.1941,N,13955.1094,E,,,060180,,,N*55
$GNVTG,,T,,M,,N,,K,N*32
$GNZDA,020205.00,06,01,1980,,*7A
$L1MAG,0.00,0.00,387,387*36
$GPGGA,020206.00,3538.1941,N,13955.1094,E,0,00,6.9,0.0,M,0.0,M,,*53
$GNGLL,3538.1941,N,13955.1094,E,020206.00,V,N*6E
$GNGSA,A,1,,,,,,,,,,,,,10.5,6.9,7.8*1A
$GQGSV,1,1,01,62,,,16,,,,,,,,,,,,*7A
$GNGNS,020206.00,3538.1941,N,13955.1094,E,NN,00,6.9,0.0,M,0.0,M,,*66
$GNRMC,020206.00,V,3538.1941,N,13955.1094,E,,,060180,,,N*56
$GNVTG,,T,,M,,N,,K,N*32
$GNZDA,020206.00,06,01,1980,,*79
$L1MAG,0.00,0.00,389,389*36
$GPGGA,020207.00,3538.1941,N,13955.1094,E,0,00,6.9,0.0,M,0.0,M,,*52
$GNGLL,3538.1941,N,13955.1094,E,020207.00,V,N*6F
$GNGSA,A,1,,,,,,,,,,,,,10.5,6.9,7.8*1A
$GNGNS,020207.00,3538.1941,N,13955.1094,E,NN,00,6.9,0.0,M,0.0,M,,*67
$GNRMC,020207.00,V,3538.1941,N,13955.1094,E,,,060180,,,N*57
$GNVTG,,T,,M,,N,,K,N*32
$GNZDA,020207.00,06,01,1980,,*78
$L1MAG,0.00,0.00,410,410*36
$GPGGA,020208.00,3538.1941,N,13955.1094,E,0,00,6.9,0.0,M,0.0,M,,*5D
$GNGLL,3538.1941,N,13955.1094,E,020208.00,V,N*60
$GNGSA,A,1,,,,,,,,,,,,,10.5,6.9,7.8*1A
$GNGNS,020208.00,3538.1941,N,13955.1094,E,NN,00,6.9,0.0,M,0.0,M,,*68
$GNRMC,020208.00,V,3538.1941,N,13955.1094,E,,,060180,,,N*58
$GNVTG,,T,,M,,N,,K,N*32
$GNZDA,020208.00,06,01,1980,,*77
$L1MAG,0.00,0.00,420,420*36
$GPGGA,020209.00,3538.1941,N,13955.1094,E,0,00,6.9,0.0,M,0.0,M,,*5C
$GNGLL,3538.1941,N,13955.1094,E,020209.00,V,N*61
$GNGSA,A,1,,,,,,,,,,,,,10.5,6.9,7.8*1A
$GNGNS,020209.00,3538.1941,N,13955.1094,E,NN,00,6.9,0.0,M,0.0,M,,*69
$GNRMC,020209.00,V,3538.1941,N,13955.1094,E,,,060180,,,N*59
$GNVTG,,T,,M,,N,,K,N*32
$GNZDA,020209.00,06,01,1980,,*76
$L1MAG,0.00,0.00,413,413*36
$GPGGA,020210.00,3538.1941,N,13955.1094,E,0,00,6.9,0.0,M,0.0,M,,*54
$GNGLL,3538.1941,N,13955.1094,E,020210.00,V,N*69
$GNGSA,A,1,,,,,,,,,,,,,10.5,6.9,7.8*1A
$GNGNS,020210.00,3538.1941,N,13955.1094,E,NN,00,6.9,0.0,M,0.0,M,,*61
$GNRMC,020210.00,V,3538.1941,N,13955.1094,E,,,060180,,,N*51
$GNVTG,,T,,M,,N,,K,N*32
$GNZDA,020210.00,06,01,1980,,*7E
$L1MAG,0.00,0.00,402,402*36
$GPGGA,020211.00,3538.1941,N,13955.1094,E,0,00,6.9,0.0,M,0.0,M,,*55
$GNGLL,3538.1941,N,13955.1094,E,020211.00,V,N*68
$GNGSA,A,1,,,,,,,,,,,,,10.5,6.9,7.8*1A
$GNGNS,020211.00,3538.1941,N,13955.1094,E,NN,00,6.9,0.0,M,0.0,M,,*60
$GNRMC,020211.00,V,3538.1941,N,13955.1094,E,,,060180,,,N*50
$GNVTG,,T,,M,,N,,K,N*32
$GNZDA,020211.00,06,01,1980,,*7F
$L1MAG,0.00,0.00,387,387*36
$GPGGA,020212.00,3538.1941,N,13955.1094,E,0,00,6.9,0.0,M,0.0,M,,*56
$GNGLL,3538.1941,N,13955.1094,E,020212.00,V,N*6B
$GNGSA,A,1,,,,,,,,,,,,,10.5,6.9,7.8*1A
$GNGNS,020212.00,3538.1941,N,13955.1094,E,NN,00,6.9,0.0,M,0.0,M,,*63
$GNRMC,020212.00,V,3538.1941,N,13955.1094,E,,,060180,,,N*53
$GNVTG,,T,,M,,N,,K,N*32
$GNZDA,020212.00,06,01,1980,,*7C
$L1MAG,0.00,0.00,395,395*36
$GPGGA,020213.00,3538.1941,N,13955.1094,E,0,00,6.9,0.0,M,0.0,M,,*57
$GNGLL,3538.1941,N,13955.1094,E,020213.00,V,N*6A
$GNGSA,A,1,,,,,,,,,,,,,10.5,6.9,7.8*1A
$GNGNS,020213.00,3538.1941,N,13955.1094,E,NN,00,6.9,0.0,M,0.0,M,,*62
$GNRMC,020213.00,V,3538.1941,N,13955.1094,E,,,060180,,,N*52
$GNVTG,,T,,M,,N,,K,N*32
$GNZDA,020213.00,06,01,1980,,*7D
$L1MAG,0.00,0.00,398,398*36
$GPGGA,020214.00,3538.1941,N,13955.1094,E,0,00,6.9,0.0,M,0.0,M,,*50
$GNGLL,3538.1941,N,13955.1094,E,020214.00,V,N*6D
$GNGSA,A,1,,,,,,,,,,,,,10.5,6.9,7.8*1A
$GPGSV,1,1,02,18,,,00,25,,,09,,,,,,,,*7C
$GNGNS,020214.00,3538.1941,N,13955.1094,E,NN,00,6.9,0.0,M,0.0,M,,*65
$GNRMC,020214.00,V,3538.1941,N,13955.1094,E,,,060180,,,N*55
$GNVTG,,T,,M,,N,,K,N*32
$GNZDA,020214.00,06,01,1980,,*7A
$L1MAG,0.00,0.00,385,385*36
$GPGGA,020215.00,3538.1941,N,13955.1094,E,0,00,6.9,0.0,M,0.0,M,,*51
$GNGLL,3538.1941,N,13955.1094,E,020215.00,V,N*6C
$GNGSA,A,1,,,,,,,,,,,,,10.5,6.9,7.8*1A
$GPGSV,1,1,02,18,,,00,25,,,07,,,,,,,,*72
$GNGNS,020215.00,3538.1941,N,13955.1094,E,NN,00,6.9,0.0,M,0.0,M,,*64
$GNRMC,020215.00,V,3538.1941,N,13955.1094,E,,,060180,,,N*54
$GNVTG,,T,,M,,N,,K,N*32
$GNZDA,020215.00,06,01,1980,,*7B
$L1MAG,0.00,0.00,391,391*36
$GPGGA,020216.00,3538.1941,N,13955.1094,E,0,00,6.9,0.0,M,0.0,M,,*52
$GNGLL,3538.1941,N,13955.1094,E,020216.00,V,N*6F
$GNGSA,A,1,,,,,,,,,,,,,10.5,6.9,7.8*1A
$GPGSV,1,1,02,18,,,09,25,,,06,,,,,,,,*7A
$GNGNS,020216.00,3538.1941,N,13955.1094,E,NN,00,6.9,0.0,M,0.0,M,,*67
$GNRMC,020216.00,V,3538.1941,N,13955.1094,E,,,060180,,,N*57
$GNVTG,,T,,M,,N,,K,N*32
$GNZDA,020216.00,06,01,1980,,*78
$L1MAG,0.00,0.00,381,381*36
$GPGGA,020217.00,3538.1941,N,13955.1094,E,0,00,6.9,0.0,M,0.0,M,,*53
$GNGLL,3538.1941,N,13955.1094,E,020217.00,V,N*6E
$GNGSA,A,1,,,,,,,,,,,,,10.5,6.9,7.8*1A
$GNGNS,020217.00,3538.1941,N,13955.1094,E,NN,00,6.9,0.0,M,0.0,M,,*66
$GNRMC,020217.00,V,3538.1941,N,13955.1094,E,,,060180,,,N*56
$GNVTG,,T,,M,,N,,K,N*32
$GNZDA,020217.00,06,01,1980,,*79
$L1MAG,0.00,0.00,390,390*36
$GPGGA,020218.01,3538.1941,N,13955.1094,E,0,00,6.9,0.0,M,0.0,M,,*5D
$GNGLL,3538.1941,N,13955.1094,E,020218.01,V,N*60
$GNGSA,A,1,,,,,,,,,,,,,10.5,6.9,7.8*1A
$GNGNS,020218.01,3538.1941,N,13955.1094,E,NN,00,6.9,0.0,M,0.0,M,,*68
$GNRMC,020218.01,V,3538.1941,N,13955.1094,E,,,060180,,,N*58
$GNVTG,,T,,M,,N,,K,N*32
$GNZDA,020218.01,06,01,1980,,*77
$L1MAG,0.00,0.00,418,418*36
$GPGGA,020219.00,3538.1941,N,13955.1094,E,0,00,6.9,0.0,M,0.0,M,,*5D
$GNGLL,3538.1941,N,13955.1094,E,020219.00,V,N*60
$GNGSA,A,1,,,,,,,,,,,,,10.5,6.9,7.8*1A
$GPGSV,1,1,01,01,,,00,,,,,,,,,,,,*79
$GNGNS,020219.00,3538.1941,N,13955.1094,E,NN,00,6.9,0.0,M,0.0,M,,*68
$GNRMC,020219.00,V,3538.1941,N,13955.1094,E,,,060180,,,N*58
$GNVTG,,T,,M,,N,,K,N*32
$GNZDA,020219.00,06,01,1980,,*77
$L1MAG,0.00,0.00,424,424*36
$GPGGA,020220.00,3538.1941,N,13955.1094,E,0,00,6.9,0.0,M,0.0,M,,*57
$GNGLL,3538.1941,N,13955.1094,E,020220.00,V,N*6A
$GNGSA,A,1,,,,,,,,,,,,,10.5,6.9,7.8*1A
$GPGSV,1,1,01,01,,,00,,,,,,,,,,,,*79
$GNGNS,020220.00,3538.1941,N,13955.1094,E,NN,00,6.9,0.0,M,0.0,M,,*62
$GNRMC,020220.00,V,3538.1941,N,13955.1094,E,,,060180,,,N*52
$GNVTG,,T,,M,,N,,K,N*32
$GNZDA,020220.00,06,01,1980,,*7D
$L1MAG,0.00,0.00,405,405*36
$GPGGA,020221.00,3538.1941,N,13955.1094,E,0,00,6.9,0.0,M,0.0,M,,*56
$GNGLL,3538.1941,N,13955.1094,E,020221.00,V,N*6B
$GNGSA,A,1,,,,,,,,,,,,,10.5,6.9,7.8*1A
$GNGNS,020221.00,3538.1941,N,13955.1094,E,NN,00,6.9,0.0,M,0.0,M,,*63
$GNRMC,020221.00,V,3538.1941,N,13955.1094,E,,,060180,,,N*53
$GNVTG,,T,,M,,N,,K,N*32
$GNZDA,020221.00,06,01,1980,,*7C
$L1MAG,0.00,0.00,391,391*36
$GPGGA,020222.00,3538.1941,N,13955.1094,E,0,00,6.9,0.0,M,0.0,M,,*55
$GNGLL,3538.1941,N,13955.1094,E,020222.00,V,N*68
$GNGSA,A,1,,,,,,,,,,,,,10.5,6.9,7.8*1A
$GNGNS,020222.00,3538.1941,N,13955.1094,E,NN,00,6.9,0.0,M,0.0,M,,*60
$GNRMC,020222.00,V,3538.1941,N,13955.1094,E,,,060180,,,N*50
$GNVTG,,T,,M,,N,,K,N*32
$GNZDA,020222.00,06,01,1980,,*7F
$L1MAG,0.00,0.00,401,401*36
$GPGGA,020223.00,3538.1941,N,13955.1094,E,0,00,6.9,0.0,M,0.0,M,,*54
$GNGLL,3538.1941,N,13955.1094,E,020223.00,V,N*69
$GNGSA,A,1,,,,,,,,,,,,,10.5,6.9,7.8*1A
$GNGNS,020223.00,3538.1941,N,13955.1094,E,NN,00,6.9,0.0,M,0.0,M,,*61
$GNRMC,020223.00,V,3538.1941,N,13955.1094,E,,,060180,,,N*51
$GNVTG,,T,,M,,N,,K,N*32
$GNZDA,020223.00,06,01,1980,,*7E
$L1MAG,0.00,0.00,395,395*36
$GPGGA,020224.00,3538.1941,N,13955.1094,E,0,00,6.9,0.0,M,0.0,M,,*53
$GNGLL,3538.1941,N,13955.1094,E,020224.00,V,N*6E
$GNGSA,A,1,,,,,,,,,,,,,10.5,6.9,7.8*1A
$GNGNS,020224.00,3538.1941,N,13955.1094,E,NN,00,6.9,0.0,M,0.0,M,,*66
$GNRMC,020224.00,V,3538.1941,N,13955.1094,E,,,060180,,,N*56
$GNVTG,,T,,M,,N,,K,N*32
$GNZDA,020224.00,06,01,1980,,*79
$L1MAG,0.00,0.00,372,372*36
$GPGGA,020225.00,3538.1941,N,13955.1094,E,0,00,6.9,0.0,M,0.0,M,,*52
$GNGLL,3538.1941,N,13955.1094,E,020225.00,V,N*6F
$GNGSA,A,1,,,,,,,,,,,,,10.5,6.9,7.8*1A
$GNGNS,020225.00,3538.1941,N,13955.1094,E,NN,00,6.9,0.0,M,0.0,M,,*67
$GNRMC,020225.00,V,3538.1941,N,13955.1094,E,,,060180,,,N*57
$GNVTG,,T,,M,,N,,K,N*32
$GNZDA,020225.00,06,01,1980,,*78
$L1MAG,0.00,0.00,375,375*36
$GPGGA,020226.00,3538.1941,N,13955.1094,E,0,00,6.9,0.0,M,0.0,M,,*51
$GNGLL,3538.1941,N,13955.1094,E,020226.00,V,N*6C
$GNGSA,A,1,,,,,,,,,,,,,10.5,6.9,7.8*1A
$GPGSV,1,1,01,20,,,09,,,,,,,,,,,,*73
$GNGNS,020226.00,3538.1941,N,13955.1094,E,NN,00,6.9,0.0,M,0.0,M,,*64
$GNRMC,020226.00,V,3538.1941,N,13955.1094,E,,,060180,,,N*54
$GNVTG,,T,,M,,N,,K,N*32
$GNZDA,020226.00,06,01,1980,,*7B
$L1MAG,0.00,0.00,387,387*36
$GPGGA,020227.00,3538.1941,N,13955.1094,E,0,00,6.9,0.0,M,0.0,M,,*50
$GNGLL,3538.1941,N,13955.1094,E,020227.00,V,N*6D
$GNGSA,A,1,,,,,,,,,,,,,10.5,6.9,7.8*1A
$GPGSV,1,1,01,20,,,09,,,,,,,,,,,,*73
$GNGNS,020227.00,3538.1941,N,13955.1094,E,NN,00,6.9,0.0,M,0.0,M,,*65
$GNRMC,020227.00,V,3538.1941,N,13955.1094,E,,,060180,,,N*55
$GNVTG,,T,,M,,N,,K,N*32
$GNZDA,020227.00,06,01,1980,,*7A
$L1MAG,0.00,0.00,418,418*36
$GPGGA,020228.00,3538.1941,N,13955.1094,E,0,00,6.9,0.0,M,0.0,M,,*5F
$GNGLL,3538.1941,N,13955.1094,E,020228.00,V,N*62
$GNGSA,A,1,,,,,,,,,,,,,10.5,6.9,7.8*1A
$GPGSV,1,1,01,20,,,00,,,,,,,,,,,,*7A
$GNGNS,020228.00,3538.1941,N,13955.1094,E,NN,00,6.9,0.0,M,0.0,M,,*6A
$GNRMC,020228.00,V,3538.1941,N,13955.1094,E,,,060180,,,N*5A
$GNVTG,,T,,M,,N,,K,N*32
$GNZDA,020228.00,06,01,1980,,*75
$L1MAG,0.00,0.00,407,407*36
$GPGGA,020229.00,3538.1941,N,13955.1094,E,0,00,6.9,0.0,M,0.0,M,,*5E
$GNGLL,3538.1941,N,13955.1094,E,020229.00,V,N*63
$GNGSA,A,1,,,,,,,,,,,,,10.5,6.9,7.8*1A
$GNGNS,020229.00,3538.1941,N,13955.1094,E,NN,00,6.9,0.0,M,0.0,M,,*6B
$GNRMC,020229.00,V,3538.1941,N,13955.1094,E,,,060180,,,N*5B
$GNVTG,,T,,M,,N,,K,N*32
$GNZDA,020229.00,06,01,1980,,*74
$L1MAG,0.00,0.00,394,394*36
$GPGGA,020230.00,3538.1941,N,13955.1094,E,0,00,6.9,0.0,M,0.0,M,,*56
$GNGLL,3538.1941,N,13955.1094,E,020230.00,V,N*6B
$GNGSA,A,1,,,,,,,,,,,,,10.5,6.9,7.8*1A
$GNGNS,020230.00,3538.1941,N,13955.1094,E,NN,00,6.9,0.0,M,0.0,M,,*63
$GNRMC,020230.00,V,3538.1941,N,13955.1094,E,,,060180,,,N*53
$GNVTG,,T,,M,,N,,K,N*32
$GNZDA,020230.00,06,01,1980,,*7C
$L1MAG,0.00,0.00,405,405*36
$GPGGA,020231.00,3538.1941,N,13955.1094,E,0,00,6.9,0.0,M,0.0,M,,*57
$GNGLL,3538.1941,N,13955.1094,E,020231.00,V,N*6A
$GNGSA,A,1,,,,,,,,,,,,,10.5,6.9,7.8*1A
$GNGNS,020231.00,3538.1941,N,13955.1094,E,NN,00,6.9,0.0,M,0.0,M,,*62
$GNRMC,020231.00,V,3538.1941,N,13955.1094,E,,,060180,,,N*52
$GNVTG,,T,,M,,N,,K,N*32
$GNZDA,020231.00,06,01,1980,,*7D
$L1MAG,0.00,0.00,423,423*36
$GPGGA,020232.00,3538.1941,N,13955.1094,E,0,00,6.9,0.0,M,0.0,M,,*54
$GNGLL,3538.1941,N,13955.1094,E,020232.00,V,N*69
$GNGSA,A,1,,,,,,,,,,,,,10.5,6.9,7.8*1A
$GNGNS,020232.00,3538.1941,N,13955.1094,E,NN,00,6.9,0.0,M,0.0,M,,*61
$GNRMC,020232.00,V,3538.1941,N,13955.1094,E,,,060180,,,N*51
$GNVTG,,T,,M,,N,,K,N*32
$GNZDA,020232.00,06,01,1980,,*7E
$L1MAG,0.00,0.00,398,398*36
$GPGGA,020233.00,3538.1941,N,13955.1094,E,0,00,6.9,0.0,M,0.0,M,,*55
$GNGLL,3538.1941,N,13955.1094,E,020233.00,V,N*68
$GNGSA,A,1,,,,,,,,,,,,,10.5,6.9,7.8*1A
$GNGNS,020233.00,3538.1941,N,13955.1094,E,NN,00,6.9,0.0,M,0.0,M,,*60
$GNRMC,020233.00,V,3538.1941,N,13955.1094,E,,,060180,,,N*50
$GNVTG,,T,,M,,N,,K,N*32
$GNZDA,020233.00,06,01,1980,,*7F
$L1MAG,0.00,0.00,391,391*36
$GPGGA,020234.00,3538.1941,N,13955.1094,E,0,00,6.9,0.0,M,0.0,M,,*52
$GNGLL,3538.1941,N,13955.1094,E,020234.00,V,N*6F
$GNGSA,A,1,,,,,,,,,,,,,10.5,6.9,7.8*1A
$GNGNS,020234.00,3538.1941,N,13955.1094,E,NN,00,6.9,0.0,M,0.0,M,,*67
$GNRMC,020234.00,V,3538.1941,N,13955.1094,E,,,060180,,,N*57
$GNVTG,,T,,M,,N,,K,N*32
$GNZDA,020234.00,06,01,1980,,*78
$L1MAG,0.00,0.00,363,363*36
$GPGGA,020235.00,3538.1941,N,13955.1094,E,0,00,6.9,0.0,M,0.0,M,,*53
$GNGLL,3538.1941,N,13955.1094,E,020235.00,V,N*6E
$GNGSA,A,1,,,,,,,,,,,,,10.5,6.9,7.8*1A
$GNGNS,020235.00,3538.1941,N,13955.1094,E,NN,00,6.9,0.0,M,0.0,M,,*66
$GNRMC,020235.00,V,3538.1941,N,13955.1094,E,,,060180,,,N*56
$GNVTG,,T,,M,,N,,K,N*32
$GNZDA,020235.00,06,01,1980,,*79
$L1MAG,0.00,0.00,400,400*36
$GPGGA,020236.00,3538.1941,N,13955.1094,E,0,00,6.9,0.0,M,0.0,M,,*50
$GNGLL,3538.1941,N,13955.1094,E,020236.00,V,N*6D
$GNGSA,A,1,,,,,,,,,,,,,10.5,6.9,7.8*1A
$GPGSV,1,1,01,18,,,00,,,,,,,,,,,,*71
$GNGNS,020236.00,3538.1941,N,13955.1094,E,NN,00,6.9,0.0,M,0.0,M,,*65
$GNRMC,020236.00,V,3538.1941,N,13955.1094,E,,,060180,,,N*55
$GNVTG,,T,,M,,N,,K,N*32
$GNZDA,020236.00,06,01,1980,,*7A
$L1MAG,0.00,0.00,383,383*36
$GPGGA,020237.00,3538.1941,N,13955.1094,E,0,00,6.9,0.0,M,0.0,M,,*51
$GNGLL,3538.1941,N,13955.1094,E,020237.00,V,N*6C
$GNGSA,A,1,,,,,,,,,,,,,10.5,6.9,7.8*1A
$GPGSV,1,1,01,18,,,00,,,,,,,,,,,,*71
$GNGNS,020237.00,3538.1941,N,13955.1094,E,NN,00,6.9,0.0,M,0.0,M,,*64
$GNRMC,020237.00,V,3538.1941,N,13955.1094,E,,,060180,,,N*54
$GNVTG,,T,,M,,N,,K,N*32
$GNZDA,020237.00,06,01,1980,,*7B
$L1MAG,0.00,0.00,395,395*36
$GPGGA,020238.00,3538.1941,N,13955.1094,E,0,00,6.9,0.0,M,0.0,M,,*5E
$GNGLL,3538.1941,N,13955.1094,E,020238.00,V,N*63
$GNGSA,A,1,,,,,,,,,,,,,10.5,6.9,7.8*1A
$GNGNS,020238.00,3538.1941,N,13955.1094,E,NN,00,6.9,0.0,M,0.0,M,,*6B
$GNRMC,020238.00,V,3538.1941,N,13955.1094,E,,,060180,,,N*5B
$GNVTG,,T,,M,,N,,K,N*32
$GNZDA,020238.00,06,01,1980,,*74
$L1MAG,0.00,0.00,376,376*36
$GPGGA,020239.00,3538.1941,N,13955.1094,E,0,00,6.9,0.0,M,0.0,M,,*5F
$GNGLL,3538.1941,N,13955.1094,E,020239.00,V,N*62
$GNGSA,A,1,,,,,,,,,,,,,10.5,6.9,7.8*1A
$GNGNS,020239.00,3538.1941,N,13955.1094,E,NN,00,6.9,0.0,M,0.0,M,,*6A
$GNRMC,020239.00,V,3538.1941,N,13955.1094,E,,,060180,,,N*5A
$GNVTG,,T,,M,,N,,K,N*32
$GNZDA,020239.00,06,01,1980,,*75
$L1MAG,0.00,0.00,411,411*36
$GPGGA,020240.00,3538.1941,N,13955.1094,E,0,00,6.9,0.0,M,0.0,M,,*51
$GNGLL,3538.1941,N,13955.1094,E,020240.00,V,N*6C
$GNGSA,A,1,,,,,,,,,,,,,10.5,6.9,7.8*1A
$GNGNS,020240.00,3538.1941,N,13955.1094,E,NN,00,6.9,0.0,M,0.0,M,,*64
$GNRMC,020240.00,V,3538.1941,N,13955.1094,E,,,060180,,,N*54
$GNVTG,,T,,M,,N,,K,N*32
$GNZDA,020240.00,06,01,1980,,*7B
$L1MAG,0.00,0.00,412,412*36
$GPGGA,020241.00,3538.1941,N,13955.1094,E,0,00,6.9,0.0,M,0.0,M,,*50
$GNGLL,3538.1941,N,13955.1094,E,020241.00,V,N*6D
$GNGSA,A,1,,,,,,,,,,,,,10.5,6.9,7.8*1A
$GNGNS,020241.00,3538.1941,N,13955.1094,E,NN,00,6.9,0.0,M,0.0,M,,*65
$GNRMC,020241.00,V,3538.1941,N,13955.1094,E,,,060180,,,N*55
$GNVTG,,T,,M,,N,,K,N*32
$GNZDA,020241.00,06,01,1980,,*7A
$L1MAG,0.00,0.00,388,388*36
$GPGGA,020242.00,3538.1941,N,13955.1094,E,0,00,6.9,0.0,M,0.0,M,,*53
$GNGLL,3538.1941,N,13955.1094,E,020242.00,V,N*6E
$GNGSA,A,1,,,,,,,,,,,,,10.5,6.9,7.8*1A
$GNGNS,020242.00,3538.1941,N,13955.1094,E,NN,00,6.9,0.0,M,0.0,M,,*66
$GNRMC,020242.00,V,3538.1941,N,13955.1094,E,,,060180,,,N*56
$GNVTG,,T,,M,,N,,K,N*32
$GNZDA,020242.00,06,01,1980,,*79
$L1MAG,0.00,0.00,401,401*36
$GPGGA,020243.00,3538.1941,N,13955.1094,E,0,00,6.9,0.0,M,0.0,M,,*52
$GNGLL,3538.1941,N,13955.1094,E,020243.00,V,N*6F
$GNGSA,A,1,,,,,,,,,,,,,10.5,6.9,7.8*1A
$GNGNS,020243.00,3538.1941,N,13955.1094,E,NN,00,6.9,0.0,M,0.0,M,,*67
$GNRMC,020243.00,V,3538.1941,N,13955.1094,E,,,060180,,,N*57
$GNVTG,,T,,M,,N,,K,N*32
$GNZDA,020243.00,06,01,1980,,*78
$L1MAG,0.00,0.00,376,376*36
$GPGGA,020244.00,3538.1941,N,13955.1094,E,0,00,6.9,0.0,M,0.0,M,,*55
$GNGLL,3538.1941,N,13955.1094,E,020244.00,V,N*68
$GNGSA,A,1,,,,,,,,,,,,,10.5,6.9,7.8*1A
$GNGNS,020244.00,3538.1941,N,13955.1094,E,NN,00,6.9,0.0,M,0.0,M,,*60
$GNRMC,020244.00,V,3538.1941,N,13955.1094,E,,,060180,,,N*50
$GNVTG,,T,,M,,N,,K,N*32
$GNZDA,020244.00,06,01,1980,,*7F
$L1MAG,0.00,0.00,372,372*36
$GPGGA,020245.00,3538.1941,N,13955.1094,E,0,00,6.9,0.0,M,0.0,M,,*54
$GNGLL,3538.1941,N,13955.1094,E,020245.00,V,N*69
$GNGSA,A,1,,,,,,,,,,,,,10.5,6.9,7.8*1A
$GNGNS,020245.00,3538.1941,N,13955.1094,E,NN,00,6.9,0.0,M,0.0,M,,*61
$GNRMC,020245.00,V,3538.1941,N,13955.1094,E,,,060180,,,N*51
$GNVTG,,T,,M,,N,,K,N*32
$GNZDA,020245.00,06,01,1980,,*7E
$L1MAG,0.00,0.00,351,351*36
$GPGGA,020246.00,3538.1941,N,13955.1094,E,0,00,6.9,0.0,M,0.0,M,,*57
$GNGLL,3538.1941,N,13955.1094,E,020246.00,V,N*6A
$GNGSA,A,1,,,,,,,,,,,,,10.5,6.9,7.8*1A
$GNGNS,020246.00,3538.1941,N,13955.1094,E,NN,00,6.9,0.0,M,0.0,M,,*62
$GNRMC,020246.00,V,3538.1941,N,13955.1094,E,,,060180,,,N*52
$GNVTG,,T,,M,,N,,K,N*32
$GNZDA,020246.00,06,01,1980,,*7D
$L1MAG,0.00,0.00,375,375*36
$GPGGA,020247.00,3538.1941,N,13955.1094,E,0,00,6.9,0.0,M,0.0,M,,*56
$GNGLL,3538.1941,N,13955.1094,E,020247.00,V,N*6B
$GNGSA,A,1,,,,,,,,,,,,,10.5,6.9,7.8*1A
$GNGNS,020247.00,3538.1941,N,13955.1094,E,NN,00,6.9,0.0,M,0.0,M,,*63
$GNRMC,020247.00,V,3538.1941,N,13955.1094,E,,,060180,,,N*53
$GNVTG,,T,,M,,N,,K,N*32
$GNZDA,020247.00,06,01,1980,,*7C
$L1MAG,0.00,0.00,438,438*36
$GPGGA,020248.00,3538.1941,N,13955.1094,E,0,00,6.9,0.0,M,0.0,M,,*59
$GNGLL,3538.1941,N,13955.1094,E,020248.00,V,N*64
$GNGSA,A,1,,,,,,,,,,,,,10.5,6.9,7.8*1A
$GNGNS,020248.00,3538.1941,N,13955.1094,E,NN,00,6.9,0.0,M,0.0,M,,*6C
$GNRMC,020248.00,V,3538.1941,N,13955.1094,E,,,060180,,,N*5C
$GNVTG,,T,,M,,N,,K,N*32
$GNZDA,020248.00,06,01,1980,,*73
$L1MAG,0.00,0.00,396,396*36
$GPGGA,020249.00,3538.1941,N,13955.1094,E,0,00,6.9,0.0,M,0.0,M,,*58
$GNGLL,3538.1941,N,13955.1094,E,020249.00,V,N*65
$GNGSA,A,1,,,,,,,,,,,,,10.5,6.9,7.8*1A
$GNGNS,020249.00,3538.1941,N,13955.1094,E,NN,00,6.9,0.0,M,0.0,M,,*6D
$GNRMC,020249.00,V,3538.1941,N,13955.1094,E,,,060180,,,N*5D
$GNVTG,,T,,M,,N,,K,N*32
$GNZDA,020249.00,06,01,1980,,*72
$L1MAG,0.00,0.00,392,392*36
$GPGGA,020250.00,3538.1941,N,13955.1094,E,0,00,6.9,0.0,M,0.0,M,,*50
$GNGLL,3538.1941,N,13955.1094,E,020250.00,V,N*6D
$GNGSA,A,1,,,,,,,,,,,,,10.5,6.9,7.8*1A
$GNGNS,020250.00,3538.1941,N,13955.1094,E,NN,00,6.9,0.0,M,0.0,M,,*65
$GNRMC,020250.00,V,3538.1941,N,13955.1094,E,,,060180,,,N*55
$GNVTG,,T,,M,,N,,K,N*32
$GNZDA,020250.00,06,01,1980,,*7A
$L1MAG,0.00,0.00,382,382*36
$GPGGA,020251.00,3538.1941,N,13955.1094,E,0,00,6.9,0.0,M,0.0,M,,*51
$GNGLL,3538.1941,N,13955.1094,E,020251.00,V,N*6C
$GNGSA,A,1,,,,,,,,,,,,,10.5,6.9,7.8*1A
$GQGSV,1,1,01,58,,,28,,,,,,,,,,,,*7E
$GNGNS,020251.00,3538.1941,N,13955.1094,E,NN,00,6.9,0.0,M,0.0,M,,*64
$GNRMC,020251.00,V,3538.1941,N,13955.1094,E,,,060180,,,N*54
$GNVTG,,T,,M,,N,,K,N*32
$GNZDA,020251.00,06,01,1980,,*7B
$L1MAG,0.00,0.00,393,393*36
$GPGGA,020252.00,3538.1941,N,13955.1094,E,0,00,6.9,0.0,M,0.0,M,,*52
$GNGLL,3538.1941,N,13955.1094,E,020252.00,V,N*6F
$GNGSA,A,1,,,,,,,,,,,,,10.5,6.9,7.8*1A
$GQGSV,1,1,01,58,,,19,,,,,,,,,,,,*7C
$GNGNS,020252.00,3538.1941,N,13955.1094,E,NN,00,6.9,0.0,M,0.0,M,,*67
$GNRMC,020252.00,V,3538.1941,N,13955.1094,E,,,060180,,,N*57
$GNVTG,,T,,M,,N,,K,N*32
$GNZDA,020252.00,06,01,1980,,*78
$L1MAG,0.00,0.00,368,368*36
$GPGGA,020253.00,3538.1941,N,13955.1094,E,0,00,6.9,0.0,M,0.0,M,,*53
$GNGLL,3538.1941,N,13955.1094,E,020253.00,V,N*6E
$GNGSA,A,1,,,,,,,,,,,,,10.5,6.9,7.8*1A
$GQGSV,1,1,01,58,,,00,,,,,,,,,,,,*74
$GNGNS,020253.00,3538.1941,N,13955.1094,E,NN,00,6.9,0.0,M,0.0,M,,*66
$GNRMC,020253.00,V,3538.1941,N,13955.1094,E,,,060180,,,N*56
$GNVTG,,T,,M,,N,,K,N*32
$GNZDA,020253.00,06,01,1980,,*79
$L1MAG,0.00,0.00,396,396*36
$GPGGA,020254.00,3538.1941,N,13955.1094,E,0,00,6.9,0.0,M,0.0,M,,*54
$GNGLL,3538.1941,N,13955.1094,E,020254.00,V,N*69
$GNGSA,A,1,,,,,,,,,,,,,10.5,6.9,7.8*1A
$GQGSV,1,1,01,58,,,00,,,,,,,,,,,,*74
$GNGNS,020254.00,3538.1941,N,13955.1094,E,NN,00,6.9,0.0,M,0.0,M,,*61
$GNRMC,020254.00,V,3538.1941,N,13955.1094,E,,,060180,,,N*51
$GNVTG,,T,,M,,N,,K,N*32
$GNZDA,020254.00,06,01,1980,,*7E
$L1MAG,0.00,0.00,377,377*36
$GPGGA,020255.00,3538.1941,N,13955.1094,E,0,00,6.9,0.0,M,0.0,M,,*55
$GNGLL,3538.1941,N,13955.1094,E,020255.00,V,N*68
$GNGSA,A,1,,,,,,,,,,,,,10.5,6.9,7.8*1A
$GQGSV,1,1,01,58,,,00,,,,,,,,,,,,*74
$GNGNS,020255.00,3538.1941,N,13955.1094,E,NN,00,6.9,0.0,M,0.0,M,,*60
$GNRMC,020255.00,V,3538.1941,N,13955.1094,E,,,060180,,,N*50
$GNVTG,,T,,M,,N,,K,N*32
$GNZDA,020255.00,06,01,1980,,*7F
$L1MAG,0.00,0.00,373,373*36
$GPGGA,020256.00,3538.1941,N,13955.1094,E,0,00,6.9,0.0,M,0.0,M,,*56
$GNGLL,3538.1941,N,13955.1094,E,020256.00,V,N*6B
$GNGSA,A,1,,,,,,,,,,,,,10.5,6.9,7.8*1A
$GQGSV,1,1,01,58,,,00,,,,,,,,,,,,*74
$GNGNS,020256.00,3538.1941,N,13955.1094,E,NN,00,6.9,0.0,M,0.0,M,,*63
$GNRMC,020256.00,V,3538.1941,N,13955.1094,E,,,060180,,,N*53
$GNVTG,,T,,M,,N,,K,N*32
$GNZDA,020256.00,06,01,1980,,*7C
$L1MAG,0.00,0.00,360,360*36
$GPGGA,020257.00,3538.1941,N,13955.1094,E,0,00,6.9,0.0,M,0.0,M,,*57
$GNGLL,3538.1941,N,13955.1094,E,020257.00,V,N*6A
$GNGSA,A,1,,,,,,,,,,,,,10.5,6.9,7.8*1A
$GQGSV,1,1,01,58,,,00,,,,,,,,,,,,*74
$GNGNS,020257.00,3538.1941,N,13955.1094,E,NN,00,6.9,0.0,M,0.0,M,,*62
$GNRMC,020257.00,V,3538.1941,N,13955.1094,E,,,060180,,,N*52
$GNVTG,,T,,M,,N,,K,N*32
$GNZDA,020257.00,06,01,1980,,*7D
$L1MAG,0.00,0.00,388,388*36
$GPGGA,020258.00,3538.1941,N,13955.1094,E,0,00,6.9,0.0,M,0.0,M,,*58
$GNGLL,3538.1941,N,13955.1094,E,020258.00,V,N*65
$GNGSA,A,1,,,,,,,,,,,,,10.5,6.9,7.8*1A
$GQGSV,1,1,01,58,,,00,,,,,,,,,,,,*74
$GNGNS,020258.00,3538.1941,N,13955.1094,E,NN,00,6.9,0.0,M,0.0,M,,*6D
$GNRMC,020258.00,V,3538.1941,N,13955.1094,E,,,060180,,,N*5D
$GNVTG,,T,,M,,N,,K,N*32
$GNZDA,020258.00,06,01,1980,,*72
$L1MAG,0.00,0.00,395,395*36
$GPGGA,020259.00,3538.1941,N,13955.1094,E,0,00,6.9,0.0,M,0.0,M,,*59
$GNGLL,3538.1941,N,13955.1094,E,020259.00,V,N*64
$GNGSA,A,1,,,,,,,,,,,,,10.5,6.9,7.8*1A
$GNGNS,020259.00,3538.1941,N,13955.1094,E,NN,00,6.9,0.0,M,0.0,M,,*6C
$GNRMC,020259.00,V,3538.1941,N,13955.1094,E,,,060180,,,N*5C
$GNVTG,,T,,M,,N,,K,N*32
$GNZDA,020259.00,06,01,1980,,*73
$L1MAG,0.00,0.00,401,401*36
$GPGGA,020300.00,3538.1941,N,13955.1094,E,0,00,6.9,0.0,M,0.0,M,,*54
$GNGLL,3538.1941,N,13955.1094,E,020300.00,V,N*69
$GNGSA,A,1,,,,,,,,,,,,,10.5,6.9,7.8*1A
$GNGNS,020300.00,3538.1941,N,13955.1094,E,NN,00,6.9,0.0,M,0.0,M,,*61
$GNRMC,020300.00,V,3538.1941,N,13955.1094,E,,,060180,,,N*51
$GNVTG,,T,,M,,N,,K,N*32
$GNZDA,020300.00,06,01,1980,,*7E
$L1MAG,0.00,0.00,399,399*36
$GPGGA,020301.00,3538.1941,N,13955.1094,E,0,00,6.9,0.0,M,0.0,M,,*55
$GNGLL,3538.1941,N,13955.1094,E,020301.00,V,N*68
$GNGSA,A,1,,,,,,,,,,,,,10.5,6.9,7.8*1A
$GNGNS,020301.00,3538.1941,N,13955.1094,E,NN,00,6.9,0.0,M,0.0,M,,*60
$GNRMC,020301.00,V,3538.1941,N,13955.1094,E,,,060180,,,N*50
$GNVTG,,T,,M,,N,,K,N*32
$GNZDA,020301.00,06,01,1980,,*7F
$L1MAG,0.00,0.00,402,402*36
$GPGGA,020302.00,3538.1941,N,13955.1094,E,0,00,6.9,0.0,M,0.0,M,,*56
$GNGLL,3538.1941,N,13955.1094,E,020302.00,V,N*6B
$GNGSA,A,1,,,,,,,,,,,,,10.5,6.9,7.8*1A
$GPGSV,1,1,01,12,,,00,,,,,,,,,,,,*7B
$GNGNS,020302.00,3538.1941,N,13955.1094,E,NN,00,6.9,0.0,M,0.0,M,,*63
$GNRMC,020302.00,V,3538.1941,N,13955.1094,E,,,060180,,,N*53
$GNVTG,,T,,M,,N,,K,N*32
$GNZDA,020302.00,06,01,1980,,*7C
$L1MAG,0.00,0.00,404,404*36
$GPGGA,020303.00,3538.1941,N,13955.1094,E,0,00,6.9,0.0,M,0.0,M,,*57
$GNGLL,3538.1941,N,13955.1094,E,020303.00,V,N*6A
$GNGSA,A,1,,,,,,,,,,,,,10.5,6.9,7.8*1A
$GPGSV,1,1,01,12,,,00,,,,,,,,,,,,*7B
$GNGNS,020303.00,3538.1941,N,13955.1094,E,NN,00,6.9,0.0,M,0.0,M,,*62
$GNRMC,020303.00,V,3538.1941,N,13955.1094,E,,,060180,,,N*52
$GNVTG,,T,,M,,N,,K,N*32
$GNZDA,020303.00,06,01,1980,,*7D
$L1MAG,0.00,0.00,375,375*36
$GPGGA,020304.00,3538.1941,N,13955.1094,E,0,00,6.9,0.0,M,0.0,M,,*50
$GNGLL,3538.1941,N,13955.1094,E,020304.00,V,N*6D
$GNGSA,A,1,,,,,,,,,,,,,10.5,6.9,7.8*1A
$GPGSV,1,1,01,12,,,00,,,,,,,,,,,,*7B
$GNGNS,020304.00,3538.1941,N,13955.1094,E,NN,00,6.9,0.0,M,0.0,M,,*65
$GNRMC,020304.00,V,3538.1941,N,13955.1094,E,,,060180,,,N*55
$GNVTG,,T,,M,,N,,K,N*32
$GNZDA,020304.00,06,01,1980,,*7A
$L1MAG,0.00,0.00,377,377*36
$GPGGA,020305.00,3538.1941,N,13955.1094,E,0,00,6.9,0.0,M,0.0,M,,*51
$GNGLL,3538.1941,N,13955.1094,E,020305.00,V,N*6C
$GNGSA,A,1,,,,,,,,,,,,,10.5,6.9,7.8*1A
$GNGNS,020305.00,3538.1941,N,13955.1094,E,NN,00,6.9,0.0,M,0.0,M,,*64
$GNRMC,020305.00,V,3538.1941,N,13955.1094,E,,,060180,,,N*54
$GNVTG,,T,,M,,N,,K,N*32
$GNZDA,020305.00,06,01,1980,,*7B
$L1MAG,0.00,0.00,390,390*36
$GPGGA,020306.00,3538.1941,N,13955.1094,E,0,00,6.9,0.0,M,0.0,M,,*52
$GNGLL,3538.1941,N,13955.1094,E,020306.00,V,N*6F
$GNGSA,A,1,,,,,,,,,,,,,10.5,6.9,7.8*1A
$GQGSV,1,1,01,61,,,19,,,,,,,,,,,,*76
$GNGNS,020306.00,3538.1941,N,13955.1094,E,NN,00,6.9,0.0,M,0.0,M,,*67
$GNRMC,020306.00,V,3538.1941,N,13955.1094,E,,,060180,,,N*57
$GNVTG,,T,,M,,N,,K,N*32
$GNZDA,020306.00,06,01,1980,,*78
$L1MAG,0.00,0.00,386,386*36
$GPGGA,020307.00,3538.1941,N,13955.1094,E,0,00,6.9,0.0,M,0.0,M,,*53
$GNGLL,3538.1941,N,13955.1094,E,020307.00,V,N*6E
$GNGSA,A,1,,,,,,,,,,,,,10.5,6.9,7.8*1A
$GQGSV,1,1,01,61,,,00,,,,,,,,,,,,*7E
$GNGNS,020307.00,3538.1941,N,13955.1094,E,NN,00,6.9,0.0,M,0.0,M,,*66
$GNRMC,020307.00,V,3538.1941,N,13955.1094,E,,,060180,,,N*56
$GNVTG,,T,,M,,N,,K,N*32
$GNZDA,020307.00,06,01,1980,,*79
$L1MAG,0.00,0.00,419,419*36
$GPGGA,020308.00,3538.1941,N,13955.1094,E,0,00,6.9,0.0,M,0.0,M,,*5C
$GNGLL,3538.1941,N,13955.1094,E,020308.00,V,N*61
$GNGSA,A,1,,,,,,,,,,,,,10.5,6.9,7.8*1A
$GQGSV,1,1,01,61,,,00,,,,,,,,,,,,*7E
$GNGNS,020308.00,3538.1941,N,13955.1094,E,NN,00,6.9,0.0,M,0.0,M,,*69
$GNRMC,020308.00,V,3538.1941,N,13955.1094,E,,,060180,,,N*59
$GNVTG,,T,,M,,N,,K,N*32
$GNZDA,020308.00,06,01,1980,,*76
$L1MAG,0.00,0.00,417,417*36
$GPGGA,020309.00,3538.1941,N,13955.1094,E,0,00,6.9,0.0,M,0.0,M,,*5D
$GNGLL,3538.1941,N,13955.1094,E,020309.00,V,N*60
$GNGSA,A,1,,,,,,,,,,,,,10.5,6.9,7.8*1A
$GQGSV,1,1,01,61,,,00,,,,,,,,,,,,*7E
$GNGNS,020309.00,3538.1941,N,13955.1094,E,NN,00,6.9,0.0,M,0.0,M,,*68
$GNRMC,020309.00,V,3538.1941,N,13955.1094,E,,,060180,,,N*58
$GNVTG,,T,,M,,N,,K,N*32
$GNZDA,020309.00,06,01,1980,,*77
$L1MAG,0.00,0.00,430,430*36
$GPGGA,020310.00,3538.1941,N,13955.1094,E,0,00,6.9,0.0,M,0.0,M,,*55
$GNGLL,3538.1941,N,13955.1094,E,020310.00,V,N*68
$GNGSA,A,1,,,,,,,,,,,,,10.5,6.9,7.8*1A
$GQGSV,1,1,01,61,,,20,,,,,,,,,,,,*7C
$GNGNS,020310.00,3538.1941,N,13955.1094,E,NN,00,6.9,0.0,M,0.0,M,,*60
$GNRMC,020310.00,V,3538.1941,N,13955.1094,E,,,060180,,,N*50
$GNVTG,,T,,M,,N,,K,N*32
$GNZDA,020310.00,06,01,1980,,*7F
$L1MAG,0.00,0.00,392,392*36
$GPGGA,020311.00,3538.1941,N,13955.1094,E,0,00,6.9,0.0,M,0.0,M,,*54
$GNGLL,3538.1941,N,13955.1094,E,020311.00,V,N*69
$GNGSA,A,1,,,,,,,,,,,,,10.5,6.9,7.8*1A
$GQGSV,1,1,01,61,,,23,,,,,,,,,,,,*7F
$GNGNS,020311.00,3538.1941,N,13955.1094,E,NN,00,6.9,0.0,M,0.0,M,,*61
$GNRMC,020311.00,V,3538.1941,N,13955.1094,E,,,060180,,,N*51
$GNVTG,,T,,M,,N,,K,N*32
$GNZDA,020311.00,06,01,1980,,*7E
$L1MAG,0.00,0.00,379,379*36
$GPGGA,020312.00,3538.1941,N,13955.1094,E,0,00,6.9,0.0,M,0.0,M,,*57
$GNGLL,3538.1941,N,13955.1094,E,020312.00,V,N*6A
$GNGSA,A,1,,,,,,,,,,,,,10.5,6.9,7.8*1A
$GNGNS,020312.00,3538.1941,N,13955.1094,E,NN,00,6.9,0.0,M,0.0,M,,*62
$GNRMC,020312.00,V,3538.1941,N,13955.1094,E,,,060180,,,N*52
$GNVTG,,T,,M,,N,,K,N*32
$GNZDA,020312.00,06,01,1980,,*7D
$L1MAG,0.00,0.00,409,409*36
$GPGGA,020313.00,3538.1941,N,13955.1094,E,0,00,6.9,0.0,M,0.0,M,,*56
$GNGLL,3538.1941,N,13955.1094,E,020313.00,V,N*6B
$GNGSA,A,1,,,,,,,,,,,,,10.5,6.9,7.8*1A
$GNGNS,020313.00,3538.1941,N,13955.1094,E,NN,00,6.9,0.0,M,0.0,M,,*63
$GNRMC,020313.00,V,3538.1941,N,13955.1094,E,,,060180,,,N*53
$GNVTG,,T,,M,,N,,K,N*32
$GNZDA,020313.00,06,01,1980,,*7C
$L1MAG,0.00,0.00,370,370*36
$GPGGA,020314.00,3538.1941,N,13955.1094,E,0,00,6.9,0.0,M,0.0,M,,*51
$GNGLL,3538.1941,N,13955.1094,E,020314.00,V,N*6C
$GNGSA,A,1,,,,,,,,,,,,,10.5,6.9,7.8*1A
$GNGNS,020314.00,3538.1941,N,13955.1094,E,NN,00,6.9,0.0,M,0.0,M,,*64
$GNRMC,020314.00,V,3538.1941,N,13955.1094,E,,,060180,,,N*54
$GNVTG,,T,,M,,N,,K,N*32
$GNZDA,020314.00,06,01,1980,,*7B
$L1MAG,0.00,0.00,379,379*36
$GPGGA,020315.00,3538.1941,N,13955.1094,E,0,00,6.9,0.0,M,0.0,M,,*50
$GNGLL,3538.1941,N,13955.1094,E,020315.00,V,N*6D
$GNGSA,A,1,,,,,,,,,,,,,10.5,6.9,7.8*1A
$GNGNS,020315.00,3538.1941,N,13955.1094,E,NN,00,6.9,0.0,M,0.0,M,,*65
$GNRMC,020315.00,V,3538.1941,N,13955.1094,E,,,060180,,,N*55
$GNVTG,,T,,M,,N,,K,N*32
$GNZDA,020315.00,06,01,1980,,*7A
$L1MAG,0.00,0.00,383,383*36
$GPGGA,020316.00,3538.1941,N,13955.1094,E,0,00,6.9,0.0,M,0.0,M,,*53
$GNGLL,3538.1941,N,13955.1094,E,020316.00,V,N*6E
$GNGSA,A,1,,,,,,,,,,,,,10.5,6.9,7.8*1A
$GNGNS,020316.00,3538.1941,N,13955.1094,E,NN,00,6.9,0.0,M,0.0,M,,*66
$GNRMC,020316.00,V,3538.1941,N,13955.1094,E,,,060180,,,N*56
$GNVTG,,T,,M,,N,,K,N*32
$GNZDA,020316.00,06,01,1980,,*79
$L1MAG,0.00,0.00,429,429*36
$GPGGA,020317.00,3538.1941,N,13955.1094,E,0,00,6.9,0.0,M,0.0,M,,*52
$GNGLL,3538.1941,N,13955.1094,E,020317.00,V,N*6F
$GNGSA,A,1,,,,,,,,,,,,,10.5,6.9,7.8*1A
$GNGNS,020317.00,3538.1941,N,13955.1094,E,NN,00,6.9,0.0,M,0.0,M,,*67
$GNRMC,020317.00,V,3538.1941,N,13955.1094,E,,,060180,,,N*57
$GNVTG,,T,,M,,N,,K,N*32
$GNZDA,020317.00,06,01,1980,,*78
$L1MAG,0.00,0.00,400,400*36
$GPGGA,020318.00,3538.1941,N,13955.1094,E,0,00,6.9,0.0,M,0.0,M,,*5D
$GNGLL,3538.1941,N,13955.1094,E,020318.00,V,N*60
$GNGSA,A,1,,,,,,,,,,,,,10.5,6.9,7.8*1A
$GNGNS,020318.00,3538.1941,N,13955.1094,E,NN,00,6.9,0.0,M,0.0,M,,*68
$GNRMC,020318.00,V,3538.1941,N,13955.1094,E,,,060180,,,N*58
$GNVTG,,T,,M,,N,,K,N*32
$GNZDA,020318.00,06,01,1980,,*77
$L1MAG,0.00,0.00,389,389*36
$GPGGA,020319.00,3538.1941,N,13955.1094,E,0,00,6.9,0.0,M,0.0,M,,*5C
$GNGLL,3538.1941,N,13955.1094,E,020319.00,V,N*61
$GNGSA,A,1,,,,,,,,,,,,,10.5,6.9,7.8*1A
$GNGNS,020319.00,3538.1941,N,13955.1094,E,NN,00,6.9,0.0,M,0.0,M,,*69
$GNRMC,020319.00,V,3538.1941,N,13955.1094,E,,,060180,,,N*59
$GNVTG,,T,,M,,N,,K,N*32
$GNZDA,020319.00,06,01,1980,,*76
$L1MAG,0.00,0.00,398,398*36
$GPGGA,020320.00,3538.1941,N,13955.1094,E,0,00,6.9,0.0,M,0.0,M,,*56
$GNGLL,3538.1941,N,13955.1094,E,020320.00,V,N*6B
$GNGSA,A,1,,,,,,,,,,,,,10.5,6.9,7.8*1A
$GNGNS,020320.00,3538.1941,N,13955.1094,E,NN,00,6.9,0.0,M,0.0,M,,*63
$GNRMC,020320.00,V,3538.1941,N,13955.1094,E,,,060180,,,N*53
$GNVTG,,T,,M,,N,,K,N*32
$GNZDA,020320.00,06,01,1980,,*7C
$L1MAG,0.00,0.00,418,418*36
$GPGGA,020321.00,3538.1941,N,13955.1094,E,0,00,6.9,0.0,M,0.0,M,,*57
$GNGLL,3538.1941,N,13955.1094,E,020321.00,V,N*6A
$GNGSA,A,1,,,,,,,,,,,,,10.5,6.9,7.8*1A
$GNGNS,020321.00,3538.1941,N,13955.1094,E,NN,00,6.9,0.0,M,0.0,M,,*62
$GNRMC,020321.00,V,3538.1941,N,13955.1094,E,,,060180,,,N*52
$GNVTG,,T,,M,,N,,K,N*32
$GNZDA,020321.00,06,01,1980,,*7D
$L1MAG,0.00,0.00,419,419*36
$GPGGA,020322.00,3538.1941,N,13955.1094,E,0,00,6.9,0.0,M,0.0,M,,*54
$GNGLL,3538.1941,N,13955.1094,E,020322.00,V,N*69
$GNGSA,A,1,,,,,,,,,,,,,10.5,6.9,7.8*1A
$GNGNS,020322.00,3538.1941,N,13955.1094,E,NN,00,6.9,0.0,M,0.0,M,,*61
$GNRMC,020322.00,V,3538.1941,N,13955.1094,E,,,060180,,,N*51
$GNVTG,,T,,M,,N,,K,N*32
$GNZDA,020322.00,06,01,1980,,*7E
$L1MAG,0.00,0.00,402,402*36
$GPGGA,020323.00,3538.1941,N,13955.1094,E,0,00,6.9,0.0,M,0.0,M,,*55
$GNGLL,3538.1941,N,13955.1094,E,020323.00,V,N*68
$GNGSA,A,1,,,,,,,,,,,,,10.5,6.9,7.8*1A
$GNGNS,020323.00,3538.1941,N,13955.1094,E,NN,00,6.9,0.0,M,0.0,M,,*60
$GNRMC,020323.00,V,3538.1941,N,13955.1094,E,,,060180,,,N*50
$GNVTG,,T,,M,,N,,K,N*32
$GNZDA,020323.00,06,01,1980,,*7F
$L1MAG,0.00,0.00,424,424*36
$GPGGA,020324.00,3538.1941,N,13955.1094,E,0,00,6.9,0.0,M,0.0,M,,*52
$GNGLL,3538.1941,N,13955.1094,E,020324.00,V,N*6F
$GNGSA,A,1,,,,,,,,,,,,,10.5,6.9,7.8*1A
$GNGNS,020324.00,3538.1941,N,13955.1094,E,NN,00,6.9,0.0,M,0.0,M,,*67
$GNRMC,020324.00,V,3538.1941,N,13955.1094,E,,,060180,,,N*57
$GNVTG,,T,,M,,N,,K,N*32
$GNZDA,020324.00,06,01,1980,,*78
$L1MAG,0.00,0.00,413,413*36
$GPGGA,020325.00,3538.1941,N,13955.1094,E,0,00,6.9,0.0,M,0.0,M,,*53
$GNGLL,3538.1941,N,13955.1094,E,020325.00,V,N*6E
$GNGSA,A,1,,,,,,,,,,,,,10.5,6.9,7.8*1A
$GNGNS,020325.00,3538.1941,N,13955.1094,E,NN,00,6.9,0.0,M,0.0,M,,*66
$GNRMC,020325.00,V,3538.1941,N,13955.1094,E,,,060180,,,N*56
$GNVTG,,T,,M,,N,,K,N*32
$GNZDA,020325.00,06,01,1980,,*79
$L1MAG,0.00,0.00,397,397*36
$GPGGA,020326.00,3538.1941,N,13955.1094,E,0,00,6.9,0.0,M,0.0,M,,*50
$GNGLL,3538.1941,N,13955.1094,E,020326.00,V,N*6D
$GNGSA,A,1,,,,,,,,,,,,,10.5,6.9,7.8*1A
$GNGNS,020326.00,3538.1941,N,13955.1094,E,NN,00,6.9,0.0,M,0.0,M,,*65
$GNRMC,020326.00,V,3538.1941,N,13955.1094,E,,,060180,,,N*55
$GNVTG,,T,,M,,N,,K,N*32
$GNZDA,020326.00,06,01,1980,,*7A
$L1MAG,0.00,0.00,390,390*36
$GPGGA,020327.00,3538.1941,N,13955.1094,E,0,00,6.9,0.0,M,0.0,M,,*51
$GNGLL,3538.1941,N,13955.1094,E,020327.00,V,N*6C
$GNGSA,A,1,,,,,,,,,,,,,10.5,6.9,7.8*1A
$GNGNS,020327.00,3538.1941,N,13955.1094,E,NN,00,6.9,0.0,M,0.0,M,,*64
$GNRMC,020327.00,V,3538.1941,N,13955.1094,E,,,060180,,,N*54
$GNVTG,,T,,M,,N,,K,N*32
$GNZDA,020327.00,06,01,1980,,*7B
$L1MAG,0.00,0.00,422,422*36
$GPGGA,020328.00,3538.1941,N,13955.1094,E,0,00,6.9,0.0,M,0.0,M,,*5E
$GNGLL,3538.1941,N,13955.1094,E,020328.00,V,N*63
$GNGSA,A,1,,,,,,,,,,,,,10.5,6.9,7.8*1A
$GNGNS,020328.00,3538.1941,N,13955.1094,E,NN,00,6.9,0.0,M,0.0,M,,*6B
$GNRMC,020328.00,V,3538.1941,N,13955.1094,E,,,060180,,,N*5B
$GNVTG,,T,,M,,N,,K,N*32
$GNZDA,020328.00,06,01,1980,,*74
$L1MAG,0.00,0.00,409,409*36
$GPGGA,020329.00,3538.1941,N,13955.1094,E,0,00,6.9,0.0,M,0.0,M,,*5F
$GNGLL,3538.1941,N,13955.1094,E,020329.00,V,N*62
$GNGSA,A,1,,,,,,,,,,,,,10.5,6.9,7.8*1A
$GNGNS,020329.00,3538.1941,N,13955.1094,E,NN,00,6.9,0.0,M,0.0,M,,*6A
$GNRMC,020329.00,V,3538.1941,N,13955.1094,E,,,060180,,,N*5A
$GNVTG,,T,,M,,N,,K,N*32
$GNZDA,020329.00,06,01,1980,,*75
$L1MAG,0.00,0.00,404,404*36
$GPGGA,020330.00,3538.1941,N,13955.1094,E,0,00,6.9,0.0,M,0.0,M,,*57
$GNGLL,3538.1941,N,13955.1094,E,020330.00,V,N*6A
$GNGSA,A,1,,,,,,,,,,,,,10.5,6.9,7.8*1A
$GNGNS,020330.00,3538.1941,N,13955.1094,E,NN,00,6.9,0.0,M,0.0,M,,*62
$GNRMC,020330.00,V,3538.1941,N,13955.1094,E,,,060180,,,N*52
$GNVTG,,T,,M,,N,,K,N*32
$GNZDA,020330.00,06,01,1980,,*7D
$L1MAG,0.00,0.00,382,382*36
$GPGGA,020331.00,3538.1941,N,13955.1094,E,0,00,6.9,0.0,M,0.0,M,,*56
$GNGLL,3538.1941,N,13955.1094,E,020331.00,V,N*6B
$GNGSA,A,1,,,,,,,,,,,,,10.5,6.9,7.8*1A
$GNGNS,020331.00,3538.1941,N,13955.1094,E,NN,00,6.9,0.0,M,0.0,M,,*63
$GNRMC,020331.00,V,3538.1941,N,13955.1094,E,,,060180,,,N*53
$GNVTG,,T,,M,,N,,K,N*32
$GNZDA,020331.00,06,01,1980,,*7C
$L1MAG,0.00,0.00,368,368*36
$GPGGA,020332.00,3538.1941,N,13955.1094,E,0,00,6.9,0.0,M,0.0,M,,*55
$GNGLL,3538.1941,N,13955.1094,E,020332.00,V,N*68
$GNGSA,A,1,,,,,,,,,,,,,10.5,6.9,7.8*1A
$GNGNS,020332.00,3538.1941,N,13955.1094,E,NN,00,6.9,0.0,M,0.0,M,,*60
$GNRMC,020332.00,V,3538.1941,N,13955.1094,E,,,060180,,,N*50
$GNVTG,,T,,M,,N,,K,N*32
$GNZDA,020332.00,06,01,1980,,*7F
$L1MAG,0.00,0.00,366,366*36
$GPGGA,020333.00,3538.1941,N,13955.1094,E,0,00,6.9,0.0,M,0.0,M,,*54
$GNGLL,3538.1941,N,13955.1094,E,020333.00,V,N*69
$GNGSA,A,1,,,,,,,,,,,,,10.5,6.9,7.8*1A
$GPGSV,1,1,01,07,,,04,,,,,,,,,,,,*7B
$GNGNS,020333.00,3538.1941,N,13955.1094,E,NN,00,6.9,0.0,M,0.0,M,,*61
$GNRMC,020333.00,V,3538.1941,N,13955.1094,E,,,060180,,,N*51
$GNVTG,,T,,M,,N,,K,N*32
$GNZDA,020333.00,06,01,1980,,*7E
$L1MAG,0.00,0.00,384,384*36
$GPGGA,020334.00,3538.1941,N,13955.1094,E,0,00,6.9,0.0,M,0.0,M,,*53
$GNGLL,3538.1941,N,13955.1094,E,020334.00,V,N*6E
$GNGSA,A,1,,,,,,,,,,,,,10.5,6.9,7.8*1A
$GPGSV,1,1,01,07,,,00,,,,,,,,,,,,*7F
$GNGNS,020334.00,3538.1941,N,13955.1094,E,NN,00,6.9,0.0,M,0.0,M,,*66
$GNRMC,020334.00,V,3538.1941,N,13955.1094,E,,,060180,,,N*56
$GNVTG,,T,,M,,N,,K,N*32
$GNZDA,020334.00,06,01,1980,,*79
$L1MAG,0.00,0.00,409,409*36
$GPGGA,020335.00,3538.1941,N,13955.1094,E,0,00,6.9,0.0,M,0.0,M,,*52
$GNGLL,3538.1941,N,13955.1094,E,020335.00,V,N*6F
$GNGSA,A,1,,,,,,,,,,,,,10.5,6.9,7.8*1A
$GPGSV,1,1,01,07,,,03,,,,,,,,,,,,*7C
$GQGSV,1,1,01,60,,,00,,,,,,,,,,,,*7F
$GNGNS,020335.00,3538.1941,N,13955.1094,E,NN,00,6.9,0.0,M,0.0,M,,*67
$GNRMC,020335.00,V,3538.1941,N,13955.1094,E,,,060180,,,N*57
$GNVTG,,T,,M,,N,,K,N*32
$GNZDA,020335.00,06,01,1980,,*78
$L1MAG,0.00,0.00,372,372*36
$GPGGA,020336.00,3538.1941,N,13955.1094,E,0,00,6.9,0.0,M,0.0,M,,*51
$GNGLL,3538.1941,N,13955.1094,E,020336.00,V,N*6C
$GNGSA,A,1,,,,,,,,,,,,,10.5,6.9,7.8*1A
$GPGSV,1,1,01,20,,,00,,,,,,,,,,,,*7A
$GQGSV,1,1,01,60,,,00,,,,,,,,,,,,*7F
$GNGNS,020336.00,3538.1941,N,13955.1094,E,NN,00,6.9,0.0,M,0.0,M,,*64
$GNRMC,020336.00,V,3538.1941,N,13955.1094,E,,,060180,,,N*54
$GNVTG,,T,,M,,N,,K,N*32
$GNZDA,020336.00,06,01,1980,,*7B
$L1MAG,0.00,0.00,365,365*36
$GPGGA,020337.00,3538.1941,N,13955.1094,E,0,00,6.9,0.0,M,0.0,M,,*50
$GNGLL,3538.1941,N,13955.1094,E,020337.00,V,N*6D
$GNGSA,A,1,,,,,,,,,,,,,10.5,6.9,7.8*1A
$GPGSV,1,1,01,20,,,00,,,,,,,,,,,,*7A
$GNGNS,020337.00,3538.1941,N,13955.1094,E,NN,00,6.9,0.0,M,0.0,M,,*65
$GNRMC,020337.00,V,3538.1941,N,13955.1094,E,,,060180,,,N*55
$GNVTG,,T,,M,,N,,K,N*32
$GNZDA,020337.00,06,01,1980,,*7A
$L1MAG,0.00,0.00,383,383*36
$GPGGA,020338.00,3538.1941,N,13955.1094,E,0,00,6.9,0.0,M,0.0,M,,*5F
$GNGLL,3538.1941,N,13955.1094,E,020338.00,V,N*62
$GNGSA,A,1,,,,,,,,,,,,,10.5,6.9,7.8*1A
$GNGNS,020338.00,3538.1941,N,13955.1094,E,NN,00,6.9,0.0,M,0.0,M,,*6A
$GNRMC,020338.00,V,3538.1941,N,13955.1094,E,,,060180,,,N*5A
$GNVTG,,T,,M,,N,,K,N*32
$GNZDA,020338.00,06,01,1980,,*75
$L1MAG,0.00,0.00,390,390*36
$GPGGA,020339.00,3538.1941,N,13955.1094,E,0,00,6.9,0.0,M,0.0,M,,*5E
$GNGLL,3538.1941,N,13955.1094,E,020339.00,V,N*63
$GNGSA,A,1,,,,,,,,,,,,,10.5,6.9,7.8*1A
$GNGNS,020339.00,3538.1941,N,13955.1094,E,NN,00,6.9,0.0,M,0.0,M,,*6B
$GNRMC,020339.00,V,3538.1941,N,13955.1094,E,,,060180,,,N*5B
$GNVTG,,T,,M,,N,,K,N*32
$GNZDA,020339.00,06,01,1980,,*74
$L1MAG,0.00,0.00,412,412*36
$GPGGA,020340.00,3538.1941,N,13955.1094,E,0,00,6.9,0.0,M,0.0,M,,*50
$GNGLL,3538.1941,N,13955.1094,E,020340.00,V,N*6D
$GNGSA,A,1,,,,,,,,,,,,,10.5,6.9,7.8*1A
$GNGNS,020340.00,3538.1941,N,13955.1094,E,NN,00,6.9,0.0,M,0.0,M,,*65
$GNRMC,020340.00,V,3538.1941,N,13955.1094,E,,,060180,,,N*55
$GNVTG,,T,,M,,N,,K,N*32
$GNZDA,020340.00,06,01,1980,,*7A
$L1MAG,0.00,0.00,410,410*36
$GPGGA,020341.00,3538.1941,N,13955.1094,E,0,00,6.9,0.0,M,0.0,M,,*51
$GNGLL,3538.1941,N,13955.1094,E,020341.00,V,N*6C
$GNGSA,A,1,,,,,,,,,,,,,10.5,6.9,7.8*1A
$GNGNS,020341.00,3538.1941,N,13955.1094,E,NN,00,6.9,0.0,M,0.0,M,,*64
$GNRMC,020341.00,V,3538.1941,N,13955.1094,E,,,060180,,,N*54
$GNVTG,,T,,M,,N,,K,N*32
$GNZDA,020341.00,06,01,1980,,*7B
$L1MAG,0.00,0.00,400,400*36
$GPGGA,020342.00,3538.1941,N,13955.1094,E,0,00,6.9,0.0,M,0.0,M,,*52
$GNGLL,3538.1941,N,13955.1094,E,020342.00,V,N*6F
$GNGSA,A,1,,,,,,,,,,,,,10.5,6.9,7.8*1A
$GNGNS,020342.00,3538.1941,N,13955.1094,E,NN,00,6.9,0.0,M,0.0,M,,*67
$GNRMC,020342.00,V,3538.1941,N,13955.1094,E,,,060180,,,N*57
$GNVTG,,T,,M,,N,,K,N*32
$GNZDA,020342.00,06,01,1980,,*78
$L1MAG,0.00,0.00,390,390*36
$GPGGA,020343.00,3538.1941,N,13955.1094,E,0,00,6.9,0.0,M,0.0,M,,*53
$GNGLL,3538.1941,N,13955.1094,E,020343.00,V,N*6E
$GNGSA,A,1,,,,,,,,,,,,,10.5,6.9,7.8*1A
$GNGNS,020343.00,3538.1941,N,13955.1094,E,NN,00,6.9,0.0,M,0.0,M,,*66
$GNRMC,020343.00,V,3538.1941,N,13955.1094,E,,,060180,,,N*56
$GNVTG,,T,,M,,N,,K,N*32
$GNZDA,020343.00,06,01,1980,,*79
$L1MAG,0.00,0.00,402,402*36
$GPGGA,020344.00,3538.1941,N,13955.1094,E,0,00,6.9,0.0,M,0.0,M,,*54
$GNGLL,3538.1941,N,13955.1094,E,020344.00,V,N*69
$GNGSA,A,1,,,,,,,,,,,,,10.5,6.9,7.8*1A
$GNGNS,020344.00,3538.1941,N,13955.1094,E,NN,00,6.9,0.0,M,0.0,M,,*61
$GNRMC,020344.00,V,3538.1941,N,13955.1094,E,,,060180,,,N*51
$GNVTG,,T,,M,,N,,K,N*32
$GNZDA,020344.00,06,01,1980,,*7E
$L1MAG,0.00,0.00,405,405*36
$GPGGA,020345.00,3538.1941,N,13955.1094,E,0,00,6.9,0.0,M,0.0,M,,*55
$GNGLL,3538.1941,N,13955.1094,E,020345.00,V,N*68
$GNGSA,A,1,,,,,,,,,,,,,10.5,6.9,7.8*1A
$GNGNS,020345.00,3538.1941,N,13955.1094,E,NN,00,6.9,0.0,M,0.0,M,,*60
$GNRMC,020345.00,V,3538.1941,N,13955.1094,E,,,060180,,,N*50
$GNVTG,,T,,M,,N,,K,N*32
$GNZDA,020345.00,06,01,1980,,*7F
$L1MAG,0.00,0.00,396,396*36
$GPGGA,020346.00,3538.1941,N,13955.1094,E,0,00,6.9,0.0,M,0.0,M,,*56
$GNGLL,3538.1941,N,13955.1094,E,020346.00,V,N*6B
$GNGSA,A,1,,,,,,,,,,,,,10.5,6.9,7.8*1A
$GNGNS,020346.00,3538.1941,N,13955.1094,E,NN,00,6.9,0.0,M,0.0,M,,*63
$GNRMC,020346.00,V,3538.1941,N,13955.1094,E,,,060180,,,N*53
$GNVTG,,T,,M,,N,,K,N*32
$GNZDA,020346.00,06,01,1980,,*7C
$L1MAG,0.00,0.00,409,409*36
$GPGGA,020347.00,3538.1941,N,13955.1094,E,0,00,6.9,0.0,M,0.0,M,,*57
$GNGLL,3538.1941,N,13955.1094,E,020347.00,V,N*6A
$GNGSA,A,1,,,,,,,,,,,,,10.5,6.9,7.8*1A
$GNGNS,020347.00,3538.1941,N,13955.1094,E,NN,00,6.9,0.0,M,0.0,M,,*62
$GNRMC,020347.00,V,3538.1941,N,13955.1094,E,,,060180,,,N*52
$GNVTG,,T,,M,,N,,K,N*32
$GNZDA,020347.00,06,01,1980,,*7D
$L1MAG,0.00,0.00,396,396*36
$GPGGA,020348.00,3538.1941,N,13955.1094,E,0,00,6.9,0.0,M,0.0,M,,*58
$GNGLL,3538.1941,N,13955.1094,E,020348.00,V,N*65
$GNGSA,A,1,,,,,,,,,,,,,10.5,6.9,7.8*1A
$GNGNS,020348.00,3538.1941,N,13955.1094,E,NN,00,6.9,0.0,M,0.0,M,,*6D
$GNRMC,020348.00,V,3538.1941,N,13955.1094,E,,,060180,,,N*5D
$GNVTG,,T,,M,,N,,K,N*32
$GNZDA,020348.00,06,01,1980,,*72
$L1MAG,0.00,0.00,398,398*36
$GPGGA,020349.00,3538.1941,N,13955.1094,E,0,00,6.9,0.0,M,0.0,M,,*59
$GNGLL,3538.1941,N,13955.1094,E,020349.00,V,N*64
$GNGSA,A,1,,,,,,,,,,,,,10.5,6.9,7.8*1A
$GNGNS,020349.00,3538.1941,N,13955.1094,E,NN,00,6.9,0.0,M,0.0,M,,*6C
$GNRMC,020349.00,V,3538.1941,N,13955.1094,E,,,060180,,,N*5C
$GNVTG,,T,,M,,N,,K,N*32
$GNZDA,020349.00,06,01,1980,,*73
$L1MAG,0.00,0.00,384,384*36
$GPGGA,020350.00,3538.1941,N,13955.1094,E,0,00,6.9,0.0,M,0.0,M,,*51
$GNGLL,3538.1941,N,13955.1094,E,020350.00,V,N*6C
$GNGSA,A,1,,,,,,,,,,,,,10.5,6.9,7.8*1A
$GNGNS,020350.00,3538.1941,N,13955.1094,E,NN,00,6.9,0.0,M,0.0,M,,*64
$GNRMC,020350.00,V,3538.1941,N,13955.1094,E,,,060180,,,N*54
$GNVTG,,T,,M,,N,,K,N*32
$GNZDA,020350.00,06,01,1980,,*7B
$L1MAG,0.00,0.00,396,396*36
$GPGGA,020351.00,3538.1941,N,13955.1094,E,0,00,6.9,0.0,M,0.0,M,,*50
$GNGLL,3538.1941,N,13955.1094,E,020351.00,V,N*6D
$GNGSA,A,1,,,,,,,,,,,,,10.5,6.9,7.8*1A
$GNGNS,020351.00,3538.1941,N,13955.1094,E,NN,00,6.9,0.0,M,0.0,M,,*65
$GNRMC,020351.00,V,3538.1941,N,13955.1094,E,,,060180,,,N*55
$GNVTG,,T,,M,,N,,K,N*32
$GNZDA,020351.00,06,01,1980,,*7A
$L1MAG,0.00,0.00,386,386*36
$GPGGA,020352.00,3538.1941,N,13955.1094,E,0,00,6.9,0.0,M,0.0,M,,*53
$GNGLL,3538.1941,N,13955.1094,E,020352.00,V,N*6E
$GNGSA,A,1,,,,,,,,,,,,,10.5,6.9,7.8*1A
$GNGNS,020352.00,3538.1941,N,13955.1094,E,NN,00,6.9,0.0,M,0.0,M,,*66
$GNRMC,020352.00,V,3538.1941,N,13955.1094,E,,,060180,,,N*56
$GNVTG,,T,,M,,N,,K,N*32
$GNZDA,020352.00,06,01,1980,,*79
$L1MAG,0.00,0.00,398,398*36
$GPGGA,020353.00,3538.1941,N,13955.1094,E,0,00,6.9,0.0,M,0.0,M,,*52
$GNGLL,3538.1941,N,13955.1094,E,020353.00,V,N*6F
$GNGSA,A,1,,,,,,,,,,,,,10.5,6.9,7.8*1A
$GNGNS,020353.00,3538.1941,N,13955.1094,E,NN,00,6.9,0.0,M,0.0,M,,*67
$GNRMC,020353.00,V,3538.1941,N,13955.1094,E,,,060180,,,N*57
$GNVTG,,T,,M,,N,,K,N*32
$GNZDA,020353.00,06,01,1980,,*78
$L1MAG,0.00,0.00,393,393*36
$GPGGA,020354.00,3538.1941,N,13955.1094,E,0,00,6.9,0.0,M,0.0,M,,*55
$GNGLL,3538.1941,N,13955.1094,E,020354.00,V,N*68
$GNGSA,A,1,,,,,,,,,,,,,10.5,6.9,7.8*1A
$GNGNS,020354.00,3538.1941,N,13955.1094,E,NN,00,6.9,0.0,M,0.0,M,,*60
$GNRMC,020354.00,V,3538.1941,N,13955.1094,E,,,060180,,,N*50
$GNVTG,,T,,M,,N,,K,N*32
$GNZDA,020354.00,06,01,1980,,*7F
$L1MAG,0.00,0.00,401,401*36
$GPGGA,020355.00,3538.1941,N,13955.1094,E,0,00,6.9,0.0,M,0.0,M,,*54
$GNGLL,3538.1941,N,13955.1094,E,020355.00,V,N*69
$GNGSA,A,1,,,,,,,,,,,,,10.5,6.9,7.8*1A
$GNGNS,020355.00,3538.1941,N,13955.1094,E,NN,00,6.9,0.0,M,0.0,M,,*61
$GNRMC,020355.00,V,3538.1941,N,13955.1094,E,,,060180,,,N*51
$GNVTG,,T,,M,,N,,K,N*32
$GNZDA,020355.00,06,01,1980,,*7E
$L1MAG,0.00,0.00,391,391*36
$GPGGA,020356.00,3538.1941,N,13955.1094,E,0,00,6.9,0.0,M,0.0,M,,*57
$GNGLL,3538.1941,N,13955.1094,E,020356.00,V,N*6A
$GNGSA,A,1,,,,,,,,,,,,,10.5,6.9,7.8*1A
$GNGNS,020356.00,3538.1941,N,13955.1094,E,NN,00,6.9,0.0,M,0.0,M,,*62
$GNRMC,020356.00,V,3538.1941,N,13955.1094,E,,,060180,,,N*52
$GNVTG,,T,,M,,N,,K,N*32
$GNZDA,020356.00,06,01,1980,,*7D
$L1MAG,0.00,0.00,396,396*36
$GPGGA,020357.00,3538.1941,N,13955.1094,E,0,00,6.9,0.0,M,0.0,M,,*56
$GNGLL,3538.1941,N,13955.1094,E,020357.00,V,N*6B
$GNGSA,A,1,,,,,,,,,,,,,10.5,6.9,7.8*1A
$GNGNS,020357.00,3538.1941,N,13955.1094,E,NN,00,6.9,0.0,M,0.0,M,,*63
$GNRMC,020357.00,V,3538.1941,N,13955.1094,E,,,060180,,,N*53
$GNVTG,,T,,M,,N,,K,N*32
$GNZDA,020357.00,06,01,1980,,*7C
$L1MAG,0.00,0.00,386,386*36
$GPGGA,020358.00,3538.1941,N,13955.1094,E,0,00,6.9,0.0,M,0.0,M,,*59
$GNGLL,3538.1941,N,13955.1094,E,020358.00,V,N*64
$GNGSA,A,1,,,,,,,,,,,,,10.5,6.9,7.8*1A
$GNGNS,020358.00,3538.1941,N,13955.1094,E,NN,00,6.9,0.0,M,0.0,M,,*6C
$GNRMC,020358.00,V,3538.1941,N,13955.1094,E,,,060180,,,N*5C
$GNVTG,,T,,M,,N,,K,N*32
$GNZDA,020358.00,06,01,1980,,*73
$L1MAG,0.00,0.00,392,392*36
$GPGGA,020359.00,3538.1941,N,13955.1094,E,0,00,6.9,0.0,M,0.0,M,,*58
$GNGLL,3538.1941,N,13955.1094,E,020359.00,V,N*65
$GNGSA,A,1,,,,,,,,,,,,,10.5,6.9,7.8*1A
$GNGNS,020359.00,3538.1941,N,13955.1094,E,NN,00,6.9,0.0,M,0.0,M,,*6D
$GNRMC,020359.00,V,3538.1941,N,13955.1094,E,,,060180,,,N*5D
$GNVTG,,T,,M,,N,,K,N*32
$GNZDA,020359.00,06,01,1980,,*72
$L1MAG,0.00,0.00,397,397*36
$GPGGA,020400.00,3538.1941,N,13955.1094,E,0,00,6.9,0.0,M,0.0,M,,*53
